$GPGSA,A,1,,,,,,,,,,,,,,,*1E
$GNGSA,A,1,,,,,,,,,,,,,,,*00
$PQGSA,A,1,,,,,,,,,,,,,,,*08
$GPVTG,,T,,M,,N,,K,N*2C
$GPRMC,,V,,,,,,,,,,N*53
$GPGGA,,,,,,0,,,,,,,,*66
$GPGSV,3,1,12,02,40,074,,03,03,331,,04,01,355,,06,23,039,*77
$GPGSV,3,2,12,12,42,101,,14,27,261,,24,01,154,,25,80,139,*78
$GPGSV,3,3,12,26,01,278,,29,49,205,,31,40,296,,32,14,237,*7A
$GLGSV,2,1,06,78,74,296,,70,18,001,,86,22,032,,77,45,130,*62
$GLGSV,2,2,06,69,18,300,,87,69,106,*61
$GAGSV,1,1,0,*74
$PQGSV,1,1,0,*73
$PQGSV,1,1,0,*73
$GPGSA,A,1,,,,,,,,,,,,,,,*1E
$GNGSA,A,1,,,,,,,,,,,,,,,*00
$PQGSA,A,1,,,,,,,,,,,,,,,*08
$GPVTG,,T,,M,,N,,K,N*2C
$GPRMC,,V,,,,,,,,,,N*53
$GPGGA,,,,,,0,,,,,,,,*66
$GPGSV,3,1,12,02,40,074,22,14,27,261,26,03,03,331,,04,01,355,*7B
$GPGSV,3,2,12,06,23,039,,12,42,101,,24,01,154,,25,80,139,*70
$GPGSV,3,3,12,26,01,278,,29,49,205,,31,40,296,,32,14,237,*7A
$GLGSV,2,1,06,78,74,296,,70,18,001,,86,22,032,,77,45,130,*62
$GLGSV,2,2,06,69,18,300,,87,69,106,*61
$GAGSV,1,1,0,*74
$PQGSV,1,1,0,*73
$PQGSV,1,1,0,*73
$GPGSA,A,1,,,,,,,,,,,,,,,*1E
$GNGSA,A,1,,,,,,,,,,,,,,,*00
$PQGSA,A,1,,,,,,,,,,,,,,,*08
$GPVTG,,T,,M,,N,,K,N*2C
$GPRMC,,V,,,,,,,,,,N*53
$GPGGA,,,,,,0,,,,,,,,*66
$GPGSV,3,1,12,02,40,074,22,06,23,039,31,12,42,101,31,14,27,261,28*7A
$GPGSV,3,2,12,29,49,205,23,03,03,331,,04,01,355,,24,01,154,*7B
$GPGSV,3,3,12,25,80,139,,26,01,278,,31,40,296,,32,14,237,*7F
$GLGSV,2,1,06,78,74,296,24,70,18,001,,86,22,032,,77,45,130,*64
$GLGSV,2,2,06,69,18,300,,87,69,106,*61
$GAGSV,1,1,0,*74
$PQGSV,1,1,0,*73
$PQGSV,1,1,0,*73
$GPGSA,A,1,,,,,,,,,,,,,,,*1E
$GNGSA,A,1,,,,,,,,,,,,,,,*00
$PQGSA,A,1,,,,,,,,,,,,,,,*08
$GPVTG,,T,,M,,N,,K,N*2C
$GPRMC,,V,,,,,,,,,,N*53
$GPGGA,,,,,,0,,,,,,,,*66
$GPGSV,3,1,12,02,40,074,22,06,23,039,31,12,42,101,31,14,27,261,28*7A
$GPGSV,3,2,12,29,49,205,23,03,03,331,,04,01,355,,24,01,154,*7B
$GPGSV,3,3,12,25,80,139,,26,01,278,,31,40,296,,32,14,237,*7F
$GLGSV,2,1,06,78,74,296,24,70,18,001,,86,22,032,,77,45,130,*64
$GLGSV,2,2,06,69,18,300,,87,69,106,*61
$GAGSV,1,1,0,*74
$PQGSV,1,1,0,*73
$PQGSV,1,1,0,*73
$GPGSA,A,1,,,,,,,,,,,,,,,*1E
$GNGSA,A,1,,,,,,,,,,,,,,,*00
$PQGSA,A,1,,,,,,,,,,,,,,,*08
$GPVTG,,T,,M,,N,,K,N*2C
$GPRMC,,V,,,,,,,,,,N*53
$GPGGA,,,,,,0,,,,,,,,*66
$GPGSV,3,1,12,02,40,074,26,06,23,039,34,12,42,101,31,14,27,261,29*7A
$GPGSV,3,2,12,25,80,139,24,29,49,205,22,31,40,296,23,03,03,331,*73
$GPGSV,3,3,12,04,01,355,,24,01,154,,26,01,278,,32,14,237,*71
$GLGSV,2,1,06,78,74,296,24,69,18,300,20,87,69,106,23,70,18,001,*69
$GLGSV,2,2,06,86,22,032,,77,45,130,*6F
$GAGSV,1,1,0,*74
$PQGSV,1,1,0,*73
$PQGSV,1,1,0,*73
$GPGSA,A,1,,,,,,,,,,,,,1.5,1.2,0.9,1*23
$GPVTG,151.0,T,151.0,M,0.7,N,1.3,K,A*26
$GPRMC,154928.22,A,5939.857002,N,01047.644395,E,0.7,151.0,250220,0.0,E,A*36
$GPGGA,154928.22,5939.857002,N,01047.644395,E,1,00,1.2,84.0,M,40.0,M,,*51
$GPGSV,3,1,12,02,40,074,29,06,23,039,33,12,42,101,31,14,27,261,28*73
$GPGSV,3,2,12,25,80,139,22,29,49,205,22,31,40,296,27,03,03,331,*71
$GPGSV,3,3,12,04,01,355,,24,01,154,,26,01,278,,32,14,237,*71
$GLGSV,2,1,06,78,74,296,22,69,18,300,20,87,69,106,27,70,18,001,*6B
$GLGSV,2,2,06,86,22,032,,77,45,130,*6F
$GAGSV,1,1,0,*74
$PQGSV,1,1,0,*73
$PQGSV,1,1,0,*73
$GNGSA,A,3,02,06,12,14,25,29,31,,,,,,1.5,1.2,0.9,1*33
$GNGSA,A,2,69,78,87,,,,,,,,,,1.5,1.2,0.9,2*32
$GNVTG,,T,,M,0.0,N,0.0,K,A*3D
$GNRMC,154929.21,A,5939.854439,N,01047.644279,E,0.0,,250220,0.0,E,A*0A
$GNGGA,154929.21,5939.854439,N,01047.644279,E,1,10,1.2,85.0,M,40.0,M,,*41
$GPGSV,3,1,12,02,40,074,32,06,23,039,36,12,42,101,26,14,27,261,30*73
$GPGSV,3,2,12,24,01,154,16,25,80,139,23,29,49,205,21,31,40,296,27*72
$GPGSV,3,3,12,03,03,331,,04,01,355,,26,01,278,,32,14,237,*77
$GLGSV,2,1,06,78,74,296,22,69,18,300,20,87,69,106,29,70,18,001,*65
$GLGSV,2,2,06,86,22,032,,77,45,130,*6F
$GAGSV,1,1,0,*74
$PQGSV,1,1,0,*73
$PQGSV,1,1,0,*73
$GNGSA,A,3,02,06,12,14,25,29,31,,,,,,1.4,1.0,0.9,1*30
$GNGSA,A,2,69,78,87,,,,,,,,,,1.4,1.0,0.9,2*31
$GNVTG,,T,,M,0.0,N,0.0,K,A*3D
$GNRMC,154930.21,A,5939.852414,N,01047.645435,E,0.0,,250220,0.0,E,A*04
$GNGGA,154930.21,5939.852414,N,01047.645435,E,1,10,1.0,94.0,M,40.0,M,,*4D
$GPGSV,3,1,12,02,40,074,31,06,23,039,37,12,42,101,30,14,27,261,27*70
$GPGSV,3,2,12,24,01,154,16,25,80,139,23,29,49,205,20,31,40,296,21*75
$GPGSV,3,3,12,03,03,331,,04,01,355,,26,01,278,,32,14,237,*77
$GLGSV,2,1,06,78,74,296,22,86,22,032,30,69,18,300,20,87,69,106,27*68
$GLGSV,2,2,06,70,18,001,,77,45,130,*6F
$GAGSV,1,1,0,*74
$PQGSV,1,1,0,*73
$PQGSV,1,1,0,*73
$GPGSA,A,3,02,06,12,14,24,25,29,31,,,,,1.2,0.9,0.9,1*26
$GPVTG,,T,,M,0.0,N,0.0,K,A*23
$GPRMC,154931.21,A,5939.854830,N,01047.641664,E,0.0,,250220,0.0,E,A*15
$GPGGA,154931.21,5939.854830,N,01047.641664,E,1,08,0.9,89.0,M,40.0,M,,*51
$GPGSV,3,1,12,02,40,074,28,03,03,331,14,06,23,039,34,12,42,101,31*7E
$GPGSV,3,2,12,14,27,261,26,24,01,154,17,25,80,139,22,29,49,205,20*7C
$GPGSV,3,3,12,31,40,296,18,04,01,355,,26,01,278,,32,14,237,*74
$GLGSV,2,1,06,78,74,296,23,86,22,032,27,69,18,300,20,87,69,106,24*6C
$GLGSV,2,2,06,70,18,001,,77,45,130,*6F
$GAGSV,1,1,0,*74
$PQGSV,1,1,0,*73
$PQGSV,1,1,0,*73
$GNGSA,A,3,02,06,12,14,24,25,29,31,,,,,1.0,0.8,0.7,1*35
$GNGSA,A,3,69,78,86,87,,,,,,,,,1.0,0.8,0.7,2*3D
$GNVTG,151.0,T,151.0,M,0.8,N,1.5,K,A*31
$GNRMC,154932.00,A,5939.860957,N,01047.641106,E,0.8,151.0,250220,0.0,E,A*2C
$GNGGA,154932.00,5939.860957,N,01047.641106,E,1,12,0.8,100.0,M,40.0,M,,*71
$GPGSV,3,1,12,02,40,074,27,03,03,331,14,06,23,039,34,12,42,101,31*71
$GPGSV,3,2,12,14,27,261,27,24,01,154,17,25,80,139,24,29,49,205,25*7E
$GPGSV,3,3,12,31,40,296,20,04,01,355,,26,01,278,,32,14,237,*7F
$GLGSV,2,1,06,78,74,296,26,86,22,032,28,69,18,300,20,87,69,106,28*6A
$GLGSV,2,2,06,70,18,001,,77,45,130,*6F
$GAGSV,1,1,0,*74
$PQGSV,1,1,0,*73
$PQGSV,1,1,0,*73
$GNGSA,A,3,02,03,06,12,14,24,25,29,31,,,,1.4,1.1,0.9,1*34
$GNGSA,A,3,69,78,86,87,,,,,,,,,1.4,1.1,0.9,2*3F
$GNVTG,,T,,M,0.0,N,0.0,K,A*3D
$GNRMC,154933.00,A,5939.859699,N,01047.646887,E,0.0,,250220,0.0,E,A*0E
$GNGGA,154933.00,5939.859699,N,01047.646887,E,1,12,1.1,94.0,M,40.0,M,,*44
$GPGSV,3,1,12,02,40,074,28,03,03,331,13,06,23,039,35,12,42,101,31*78
$GPGSV,3,2,12,14,27,261,26,24,01,154,16,25,80,139,23,29,49,205,23*7F
$GPGSV,3,3,12,31,40,296,20,04,01,355,,26,01,278,,32,14,237,*7F
$GLGSV,2,1,06,78,74,296,26,86,22,032,28,69,18,300,16,87,69,106,27*60
$GLGSV,2,2,06,70,18,001,,77,45,130,*6F
$GAGSV,1,1,0,*74
$PQGSV,1,1,0,*73
$PQGSV,1,1,0,*73
$GNGSA,A,3,02,06,12,14,25,29,31,,,,,,1.4,1.1,0.9,1*31
$GNGSA,A,3,69,78,86,87,,,,,,,,,1.4,1.1,0.9,2*3F
$GNVTG,,T,,M,0.0,N,0.0,K,A*3D
$GNRMC,154934.00,A,5939.859104,N,01047.646897,E,0.0,,250220,0.0,E,A*0B
$GNGGA,154934.00,5939.859104,N,01047.646897,E,1,11,1.1,93.0,M,40.0,M,,*45
$GPGSV,3,1,12,02,40,074,25,03,03,331,13,06,23,039,33,12,42,101,29*7A
$GPGSV,3,2,12,14,27,261,27,24,01,154,17,25,80,139,27,29,49,205,23*7B
$GPGSV,3,3,12,31,40,296,19,04,01,355,,26,01,278,,32,14,237,*75
$GLGSV,2,1,06,78,74,296,23,86,22,032,24,69,18,300,17,87,69,106,29*66
$GLGSV,2,2,06,70,18,001,,77,45,130,*6F
$GAGSV,1,1,0,*74
$PQGSV,1,1,0,*73
$PQGSV,1,1,0,*73
$GNGSA,A,3,02,06,12,14,25,29,31,,,,,,1.4,1.1,0.9,1*31
$GNGSA,A,3,69,78,86,87,,,,,,,,,1.4,1.1,0.9,2*3F
$GNVTG,323.7,T,323.7,M,0.4,N,0.8,K,A*31
$GNRMC,154935.00,A,5939.857710,N,01047.647480,E,0.4,323.7,250220,0.0,E,A*23
$GNGGA,154935.00,5939.857710,N,01047.647480,E,1,11,1.1,89.0,M,40.0,M,,*49
$GPGSV,3,1,12,02,40,074,20,03,03,331,13,06,23,039,27,12,42,101,28*7B
$GPGSV,3,2,12,14,27,261,25,24,01,154,17,25,80,139,27,29,49,205,23*79
$GPGSV,3,3,12,31,40,296,19,04,01,355,,26,01,278,,32,14,237,*75
$GLGSV,2,1,06,78,74,296,21,86,22,032,23,69,18,300,16,87,69,106,29*62
$GLGSV,2,2,06,70,18,001,,77,45,130,*6F
$GAGSV,1,1,0,*74
$PQGSV,1,1,0,*73
$PQGSV,1,1,0,*73
$GNGSA,A,3,02,06,12,14,25,29,31,,,,,,1.4,1.1,0.9,1*31
$GNGSA,A,3,69,78,86,87,,,,,,,,,1.4,1.1,0.9,2*3F
$GNVTG,325.3,T,325.3,M,0.5,N,0.9,K,A*31
$GNRMC,154936.00,A,5939.857635,N,01047.646142,E,0.5,325.3,250220,0.0,E,A*2F
$GNGGA,154936.00,5939.857635,N,01047.646142,E,1,11,1.1,82.0,M,40.0,M,,*4D
$GPGSV,3,1,12,02,40,074,27,03,03,331,13,06,23,039,24,12,42,101,29*7E
$GPGSV,3,2,12,14,27,261,27,24,01,154,17,25,80,139,25,29,49,205,23*79
$GPGSV,3,3,12,31,40,296,19,04,01,355,,26,01,278,,32,14,237,*75
$GLGSV,2,1,06,78,74,296,20,86,22,032,23,69,18,300,16,87,69,106,28*62
$GLGSV,2,2,06,70,18,001,,77,45,130,*6F
$GAGSV,1,1,0,*74
$PQGSV,1,1,0,*73
$PQGSV,1,1,0,*73
$GNGSA,A,3,02,06,12,14,25,29,31,,,,,,1.4,1.1,0.9,1*31
$GNGSA,A,3,69,78,86,87,,,,,,,,,1.4,1.1,0.9,2*3F
$GNVTG,,T,,M,0.0,N,0.0,K,A*3D
$GNRMC,154937.00,A,5939.857162,N,01047.645795,E,0.0,,250220,0.0,E,A*08
$GNGGA,154937.00,5939.857162,N,01047.645795,E,1,11,1.1,86.0,M,40.0,M,,*42
$GPGSV,3,1,12,02,40,074,22,03,03,331,13,06,23,039,28,12,42,101,29*77
$GPGSV,3,2,12,14,27,261,26,24,01,154,18,25,80,139,27,29,49,205,24*72
$GPGSV,3,3,12,31,40,296,19,04,01,355,,26,01,278,,32,14,237,*75
$GLGSV,2,1,06,78,74,296,22,86,22,032,22,77,45,130,13,69,18,300,17*6C
$GLGSV,2,2,06,87,69,106,30,70,18,001,*68
$GAGSV,1,1,0,*74
$PQGSV,1,1,0,*73
$PQGSV,1,1,0,*73
$GNGSA,A,3,02,06,12,14,25,29,31,,,,,,1.3,0.9,0.9,1*3F
$GNGSA,A,3,69,78,86,87,,,,,,,,,1.3,0.9,0.9,2*31
$GNVTG,,T,,M,0.0,N,0.0,K,A*3D
$GNRMC,154938.00,A,5939.856468,N,01047.646037,E,0.0,,250220,0.0,E,A*05
$GNGGA,154938.00,5939.856468,N,01047.646037,E,1,11,0.9,86.0,M,40.0,M,,*46
$GPGSV,3,1,12,02,40,074,25,03,03,331,13,06,23,039,32,12,42,101,31*72
$GPGSV,3,2,12,14,27,261,26,24,01,154,21,25,80,139,26,29,49,205,25*78
$GPGSV,3,3,12,31,40,296,16,04,01,355,,26,01,278,,32,14,237,*7A
$GLGSV,2,1,06,78,74,296,23,86,22,032,22,77,45,130,13,69,18,300,17*6D
$GLGSV,2,2,06,87,69,106,30,70,18,001,*68
$GAGSV,1,1,0,*74
$PQGSV,1,1,0,*73
$PQGSV,1,1,0,*73
$GNGSA,A,3,02,06,12,14,25,29,31,,,,,,1.3,0.9,0.9,1*3F
$GNGSA,A,3,69,77,78,86,87,,,,,,,,1.3,0.9,0.9,2*31
$GNVTG,,T,,M,0.0,N,0.0,K,A*3D
$GNRMC,154939.00,A,5939.857234,N,01047.645132,E,0.0,,250220,0.0,E,A*0D
$GNGGA,154939.00,5939.857234,N,01047.645132,E,1,12,0.9,91.0,M,40.0,M,,*4B
$GPGSV,3,1,12,02,40,074,29,03,03,331,13,06,23,039,32,12,42,101,31*7E
$GPGSV,3,2,12,14,27,261,27,24,01,154,20,25,80,139,24,29,49,205,27*78
$GPGSV,3,3,12,31,40,296,21,04,01,355,,26,01,278,,32,14,237,*7E
$GLGSV,2,1,06,78,74,296,22,86,22,032,24,77,45,130,13,69,18,300,20*6E
$GLGSV,2,2,06,87,69,106,27,70,18,001,*6E
$GAGSV,1,1,0,*74
$PQGSV,1,1,0,*73
$PQGSV,1,1,0,*73
$GNGSA,A,3,02,06,12,14,25,29,31,,,,,,1.3,0.9,0.9,1*3F
$GNGSA,A,3,69,77,78,86,87,,,,,,,,1.3,0.9,0.9,2*31
$GNVTG,,T,,M,0.0,N,0.0,K,A*3D
$GNRMC,154940.00,A,5939.857085,N,01047.645051,E,0.0,,250220,0.0,E,A*0F
$GNGGA,154940.00,5939.857085,N,01047.645051,E,1,12,0.9,88.0,M,40.0,M,,*41
$GPGSV,3,1,12,02,40,074,30,03,03,331,13,06,23,039,31,12,42,101,31*75
$GPGSV,3,2,12,14,27,261,28,24,01,154,17,25,80,139,23,29,49,205,26*75
$GPGSV,3,3,12,31,40,296,23,04,01,355,,26,01,278,,32,14,237,*7C
$GLGSV,2,1,06,78,74,296,21,86,22,032,26,77,45,130,13,69,18,300,20*6F
$GLGSV,2,2,06,87,69,106,27,70,18,001,*6E
$GAGSV,1,1,0,*74
$PQGSV,1,1,0,*73
$PQGSV,1,1,0,*73
$GNGSA,A,3,02,06,12,14,25,29,31,,,,,,1.3,0.9,0.9,1*3F
$GNGSA,A,3,69,77,78,86,87,,,,,,,,1.3,0.9,0.9,2*31
$GNVTG,,T,,M,0.0,N,0.0,K,A*3D
$GNRMC,154941.00,A,5939.858001,N,01047.645375,E,0.0,,250220,0.0,E,A*08
$GNGGA,154941.00,5939.858001,N,01047.645375,E,1,12,0.9,91.0,M,40.0,M,,*4E
$GPGSV,3,1,12,02,40,074,28,03,03,331,13,06,23,039,32,12,42,101,32*7C
$GPGSV,3,2,12,14,27,261,26,24,01,154,17,25,80,139,25,29,49,205,28*73
$GPGSV,3,3,12,31,40,296,19,04,01,355,,26,01,278,,32,14,237,*75
$GLGSV,2,1,06,78,74,296,19,86,22,032,26,77,45,130,13,69,18,300,20*64
$GLGSV,2,2,06,87,69,106,26,70,18,001,*6F
$GAGSV,1,1,0,*74
$PQGSV,1,1,0,*73
$PQGSV,1,1,0,*73
$GNGSA,A,3,02,06,12,14,25,29,31,,,,,,1.3,0.9,0.9,1*3F
$GNGSA,A,3,69,77,78,86,87,,,,,,,,1.3,0.9,0.9,2*31
$GNVTG,,T,,M,0.0,N,0.0,K,A*3D
$GNRMC,154942.00,A,5939.858338,N,01047.645050,E,0.0,,250220,0.0,E,A*06
$GNGGA,154942.00,5939.858338,N,01047.645050,E,1,12,0.9,94.0,M,40.0,M,,*45
$GPGSV,3,1,12,02,40,074,31,03,03,331,13,06,23,039,34,12,42,101,34*74
$GPGSV,3,2,12,14,27,261,25,24,01,154,17,25,80,139,20,29,49,205,26*7B
$GPGSV,3,3,12,31,40,296,21,04,01,355,,26,01,278,,32,14,237,*7E
$GLGSV,2,1,06,78,74,296,19,86,22,032,22,77,45,130,13,69,18,300,20*60
$GLGSV,2,2,06,87,69,106,26,70,18,001,*6F
$GAGSV,1,1,0,*74
$PQGSV,1,1,0,*73
$PQGSV,1,1,0,*73
$GNGSA,A,3,02,06,12,14,25,29,31,,,,,,1.3,0.9,0.9,1*3F
$GNGSA,A,3,69,77,78,86,87,,,,,,,,1.3,0.9,0.9,2*31
$GNVTG,,T,,M,0.0,N,0.0,K,A*3D
$GNRMC,154943.00,A,5939.858201,N,01047.645648,E,0.0,,250220,0.0,E,A*03
$GNGGA,154943.00,5939.858201,N,01047.645648,E,1,12,0.9,94.0,M,40.0,M,,*40
$GPGSV,3,1,12,02,40,074,32,03,03,331,13,06,23,039,36,12,42,101,31*70
$GPGSV,3,2,12,14,27,261,25,24,01,154,17,25,80,139,21,29,49,205,28*74
$GPGSV,3,3,12,31,40,296,18,04,01,355,,26,01,278,,32,14,237,*74
$GLGSV,2,1,06,78,74,296,18,86,22,032,23,77,45,130,13,69,18,300,20*60
$GLGSV,2,2,06,87,69,106,23,70,18,001,*6A
$GAGSV,1,1,0,*74
$PQGSV,1,1,0,*73
$PQGSV,1,1,0,*73
$GNGSA,A,3,02,06,12,14,25,29,31,,,,,,1.3,0.9,0.9,1*3F
$GNGSA,A,3,69,77,78,86,87,,,,,,,,1.3,0.9,0.9,2*31
$GNVTG,,T,,M,0.0,N,0.0,K,A*3D
$GNRMC,154944.00,A,5939.858379,N,01047.645897,E,0.0,,250220,0.0,E,A*06
$GNGGA,154944.00,5939.858379,N,01047.645897,E,1,12,0.9,95.0,M,40.0,M,,*44
$GPGSV,3,1,12,02,40,074,33,03,03,331,13,06,23,039,35,12,42,101,31*72
$GPGSV,3,2,12,14,27,261,27,24,01,154,17,25,80,139,19,29,49,205,25*70
$GPGSV,3,3,12,31,40,296,18,04,01,355,,26,01,278,,32,14,237,*74
$GLGSV,2,1,06,78,74,296,20,86,22,032,25,77,45,130,13,69,18,300,20*6D
$GLGSV,2,2,06,87,69,106,25,70,18,001,*6C
$GAGSV,1,1,0,*74
$PQGSV,1,1,0,*73
$PQGSV,1,1,0,*73
$GNGSA,A,3,02,06,12,14,25,29,31,,,,,,1.3,0.9,0.9,1*3F
$GNGSA,A,3,69,77,78,86,87,,,,,,,,1.3,0.9,0.9,2*31
$GNVTG,,T,,M,0.0,N,0.0,K,A*3D
$GNRMC,154945.00,A,5939.858606,N,01047.645881,E,0.0,,250220,0.0,E,A*0D
$GNGGA,154945.00,5939.858606,N,01047.645881,E,1,12,0.9,96.0,M,40.0,M,,*4C
$GPGSV,3,1,12,02,40,074,34,03,03,331,13,06,23,039,36,12,42,101,33*74
$GPGSV,3,2,12,14,27,261,25,24,01,154,17,25,80,139,18,29,49,205,29*7F
$GPGSV,3,3,12,31,40,296,22,04,01,355,,26,01,278,,32,14,237,*7D
$GLGSV,2,1,06,78,74,296,21,86,22,032,27,77,45,130,13,69,18,300,20*6E
$GLGSV,2,2,06,87,69,106,27,70,18,001,*6E
$GAGSV,1,1,0,*74
$PQGSV,1,1,0,*73
$PQGSV,1,1,0,*73
$GNGSA,A,3,02,06,12,14,25,29,31,,,,,,1.4,1.1,0.9,1*31
$GNGSA,A,3,69,77,78,86,87,,,,,,,,1.4,1.1,0.9,2*3F
$GNVTG,,T,,M,0.0,N,0.0,K,A*3D
$GNRMC,154946.00,A,5939.858775,N,01047.645672,E,0.0,,250220,0.0,E,A*09
$GNGGA,154946.00,5939.858775,N,01047.645672,E,1,12,1.1,96.0,M,40.0,M,,*41
$GPGSV,3,1,12,02,40,074,34,03,03,331,13,06,23,039,36,12,42,101,32*75
$GPGSV,3,2,12,14,27,261,25,24,01,154,17,25,80,139,19,29,49,205,28*7F
$GPGSV,3,3,12,31,40,296,22,04,01,355,,26,01,278,,32,14,237,*7D
$GLGSV,2,1,06,78,74,296,21,86,22,032,25,77,45,130,13,69,18,300,20*6C
$GLGSV,2,2,06,87,69,106,29,70,18,001,*60
$GAGSV,1,1,0,*74
$PQGSV,1,1,0,*73
$PQGSV,1,1,0,*73
$GNGSA,A,3,02,06,12,14,25,29,31,,,,,,1.4,1.1,0.9,1*31
$GNGSA,A,3,69,78,86,87,,,,,,,,,1.4,1.1,0.9,2*3F
$GNVTG,,T,,M,0.0,N,0.0,K,A*3D
$GNRMC,154947.00,A,5939.858974,N,01047.645377,E,0.0,,250220,0.0,E,A*07
$GNGGA,154947.00,5939.858974,N,01047.645377,E,1,11,1.1,98.0,M,40.0,M,,*42
$GPGSV,3,1,12,02,40,074,34,03,03,331,13,06,23,039,34,12,42,101,31*74
$GPGSV,3,2,12,14,27,261,26,24,01,154,17,25,80,139,23,29,49,205,29*74
$GPGSV,3,3,12,31,40,296,19,04,01,355,,26,01,278,,32,14,237,*75
$GLGSV,2,1,06,78,74,296,20,86,22,032,24,77,45,130,13,69,18,300,20*6C
$GLGSV,2,2,06,87,69,106,28,70,18,001,*61
$GAGSV,1,1,0,*74
$PQGSV,1,1,0,*73
$PQGSV,1,1,0,*73
$GNGSA,A,3,02,06,12,14,25,29,31,,,,,,1.4,1.1,0.9,1*31
$GNGSA,A,3,69,78,86,87,,,,,,,,,1.4,1.1,0.9,2*3F
$GNVTG,,T,,M,0.0,N,0.0,K,A*3D
$GNRMC,154948.00,A,5939.859395,N,01047.644780,E,0.0,,250220,0.0,E,A*01
$GNGGA,154948.00,5939.859395,N,01047.644780,E,1,11,1.1,99.0,M,40.0,M,,*45
$GPGSV,3,1,12,02,40,074,32,06,23,039,32,12,42,101,30,14,27,261,28*79
$GPGSV,3,2,12,24,01,154,17,25,80,139,26,29,49,205,30,31,40,296,17*75
$GPGSV,3,3,12,03,03,331,,04,01,355,,26,01,278,,32,14,237,*77
$GLGSV,2,1,06,78,74,296,23,86,22,032,19,77,45,130,13,69,18,300,20*61
$GLGSV,2,2,06,87,69,106,30,70,18,001,*68
$GAGSV,1,1,0,*74
$PQGSV,1,1,0,*73
$PQGSV,1,1,0,*73
$GNGSA,A,3,02,06,12,14,25,29,31,,,,,,1.4,1.1,0.9,1*31
$GNGSA,A,3,69,78,86,87,,,,,,,,,1.4,1.1,0.9,2*3F
$GNVTG,,T,,M,0.0,N,0.0,K,A*3D
$GNRMC,154949.00,A,5939.859535,N,01047.644633,E,0.0,,250220,0.0,E,A*05
$GNGGA,154949.00,5939.859535,N,01047.644633,E,1,11,1.1,99.0,M,40.0,M,,*41
$GPGSV,3,1,12,02,40,074,23,06,23,039,28,12,42,101,27,14,27,261,29*75
$GPGSV,3,2,12,24,01,154,14,25,80,139,25,29,49,205,29,31,40,296,17*7D
$GPGSV,3,3,12,03,03,331,,04,01,355,,26,01,278,,32,14,237,*77
$GLGSV,2,1,06,78,74,296,22,86,22,032,20,77,45,130,13,69,18,300,14*6D
$GLGSV,2,2,06,87,69,106,31,70,18,001,*69
$GAGSV,1,1,0,*74
$PQGSV,1,1,0,*73
$PQGSV,1,1,0,*73
$GNGSA,A,3,02,06,12,14,25,29,31,,,,,,1.4,1.1,0.9,1*31
$GNGSA,A,2,78,86,87,,,,,,,,,,1.4,1.1,0.9,2*31
$GNVTG,,T,,M,0.0,N,0.0,K,A*3D
$GNRMC,154950.00,A,5939.859561,N,01047.644640,E,0.0,,250220,0.0,E,A*08
$GNGGA,154950.00,5939.859561,N,01047.644640,E,1,10,1.1,99.0,M,40.0,M,,*4D
$GPGSV,3,1,12,02,40,074,24,06,23,039,22,12,42,101,25,14,27,261,29*7A
$GPGSV,3,2,12,24,01,154,14,25,80,139,22,29,49,205,30,31,40,296,20*76
$GPGSV,3,3,12,03,03,331,,04,01,355,,26,01,278,,32,14,237,*77
$GLGSV,2,1,06,78,74,296,20,86,22,032,21,77,45,130,11,69,18,300,14*6C
$GLGSV,2,2,06,87,69,106,31,70,18,001,*69
$GAGSV,1,1,0,*74
$PQGSV,1,1,0,*73
$PQGSV,1,1,0,*73
$GNGSA,A,3,02,06,12,14,25,29,31,,,,,,1.3,0.9,0.9,1*3F
$GNGSA,A,3,69,78,86,87,,,,,,,,,1.3,0.9,0.9,2*31
$GNVTG,,T,,M,0.0,N,0.0,K,A*3D
$GNRMC,154951.00,A,5939.859603,N,01047.644579,E,0.0,,250220,0.0,E,A*07
$GNGGA,154951.00,5939.859603,N,01047.644579,E,1,11,0.9,100.0,M,40.0,M,,*7B
$GPGSV,3,1,12,02,40,074,26,06,23,039,21,12,42,101,23,14,27,261,28*7C
$GPGSV,3,2,12,24,01,154,18,25,80,139,22,29,49,205,29,31,40,296,21*73
$GPGSV,3,3,12,03,03,331,,04,01,355,,26,01,278,,32,14,237,*77
$GLGSV,2,1,06,78,74,296,23,86,22,032,18,77,45,130,11,69,18,300,14*65
$GLGSV,2,2,06,87,69,106,31,70,18,001,*69
$GAGSV,1,1,0,*74
$PQGSV,1,1,0,*73
$PQGSV,1,1,0,*73
$GNGSA,A,3,02,06,12,14,25,29,31,,,,,,1.3,0.9,0.9,1*3F
$GNGSA,A,3,69,77,78,86,87,,,,,,,,1.3,0.9,0.9,2*31
$GNVTG,,T,,M,0.0,N,0.0,K,A*3D
$GNRMC,154952.00,A,5939.859636,N,01047.644532,E,0.0,,250220,0.0,E,A*0D
$GNGGA,154952.00,5939.859636,N,01047.644532,E,1,12,0.9,100.0,M,40.0,M,,*72
$GPGSV,3,1,12,02,40,074,26,06,23,039,21,12,42,101,20,14,27,261,29*7E
$GPGSV,3,2,12,24,01,154,18,25,80,139,23,29,49,205,30,31,40,296,19*71
$GPGSV,3,3,12,03,03,331,,04,01,355,,26,01,278,,32,14,237,*77
$GLGSV,2,1,06,78,74,296,22,86,22,032,18,77,45,130,11,69,18,300,14*64
$GLGSV,2,2,06,87,69,106,31,70,18,001,*69
$GAGSV,1,1,0,*74
$PQGSV,1,1,0,*73
$PQGSV,1,1,0,*73
$GNGSA,A,3,02,06,12,14,25,29,31,,,,,,1.3,0.9,0.9,1*3F
$GNGSA,A,3,69,77,78,86,87,,,,,,,,1.3,0.9,0.9,2*31
$GNVTG,,T,,M,0.0,N,0.0,K,A*3D
$GNRMC,154953.00,A,5939.859643,N,01047.644528,E,0.0,,250220,0.0,E,A*05
$GNGGA,154953.00,5939.859643,N,01047.644528,E,1,12,0.9,100.0,M,40.0,M,,*7A
$GPGSV,3,1,12,02,40,074,27,06,23,039,23,12,42,101,20,14,27,261,28*7C
$GPGSV,3,2,12,24,01,154,17,25,80,139,24,29,49,205,29,31,40,296,20*7B
$GPGSV,3,3,12,03,03,331,,04,01,355,,26,01,278,,32,14,237,*77
$GLGSV,2,1,06,78,74,296,22,86,22,032,18,77,45,130,11,69,18,300,14*64
$GLGSV,2,2,06,87,69,106,31,70,18,001,*69
$GAGSV,1,1,0,*74
$PQGSV,1,1,0,*73
$PQGSV,1,1,0,*73
$GNGSA,A,3,02,06,12,14,25,29,31,,,,,,1.3,0.9,0.9,1*3F
$GNGSA,A,3,69,77,78,86,87,,,,,,,,1.3,0.9,0.9,2*31
$GNVTG,,T,,M,0.0,N,0.0,K,A*3D
$GNRMC,154954.00,A,5939.859646,N,01047.644528,E,0.0,,250220,0.0,E,A*07
$GNGGA,154954.00,5939.859646,N,01047.644528,E,1,12,0.9,100.0,M,40.0,M,,*78
$GPGSV,3,1,12,02,40,074,26,06,23,039,19,12,42,101,18,14,27,261,28*7F
$GPGSV,3,2,12,24,01,154,19,25,80,139,22,29,49,205,30,31,40,296,21*7A
$GPGSV,3,3,12,03,03,331,,04,01,355,,26,01,278,,32,14,237,*77
$GLGSV,2,1,06,78,74,296,23,86,22,032,17,77,45,130,11,69,18,300,14*6A
$GLGSV,2,2,06,87,69,106,31,70,18,001,*69
$GAGSV,1,1,0,*74
$PQGSV,1,1,0,*73
$PQGSV,1,1,0,*73
$GNGSA,A,3,02,06,12,14,25,29,31,,,,,,1.3,0.9,0.9,1*3F
$GNGSA,A,3,69,77,78,86,87,,,,,,,,1.3,0.9,0.9,2*31
$GNVTG,,T,,M,0.0,N,0.0,K,A*3D
$GNRMC,154955.00,A,5939.859650,N,01047.644527,E,0.0,,250220,0.0,E,A*0E
$GNGGA,154955.00,5939.859650,N,01047.644527,E,1,12,0.9,100.0,M,40.0,M,,*71
$GPGSV,3,1,12,02,40,074,25,06,23,039,21,12,42,101,18,14,27,261,28*77
$GPGSV,3,2,12,24,01,154,19,25,80,139,23,29,49,205,30,31,40,296,22*78
$GPGSV,3,3,12,03,03,331,,04,01,355,,26,01,278,,32,14,237,*77
$GLGSV,2,1,06,78,74,296,22,86,22,032,17,77,45,130,11,69,18,300,14*6B
$GLGSV,2,2,06,87,69,106,31,70,18,001,*69
$GAGSV,1,1,0,*74
$PQGSV,1,1,0,*73
$PQGSV,1,1,0,*73
$GNGSA,A,3,02,06,12,14,25,29,31,,,,,,1.3,1.0,0.9,1*37
$GNGSA,A,3,69,77,78,86,87,,,,,,,,1.3,1.0,0.9,2*39
$GNVTG,,T,,M,0.0,N,0.0,K,A*3D
$GNRMC,154956.00,A,5939.859659,N,01047.644525,E,0.0,,250220,0.0,E,A*06
$GNGGA,154956.00,5939.859659,N,01047.644525,E,1,12,1.0,100.0,M,40.0,M,,*71
$GPGSV,3,1,12,02,40,074,25,06,23,039,19,12,42,101,18,14,27,261,28*7C
$GPGSV,3,2,12,24,01,154,20,25,80,139,25,29,49,205,30,31,40,296,23*75
$GPGSV,3,3,12,03,03,331,,04,01,355,,26,01,278,,32,14,237,*77
$GLGSV,2,1,06,78,74,296,23,86,22,032,17,77,45,130,11,69,18,300,14*6A
$GLGSV,2,2,06,87,69,106,31,70,18,001,*69
$GAGSV,1,1,0,*74
$PQGSV,1,1,0,*73
$PQGSV,1,1,0,*73
$GNGSA,A,3,02,06,12,14,25,29,31,,,,,,1.4,1.1,0.9,1*31
$GNGSA,A,3,77,78,86,87,,,,,,,,,1.4,1.1,0.9,2*30
$GNVTG,,T,,M,0.0,N,0.0,K,A*3D
$GNRMC,154957.00,A,5939.859661,N,01047.644528,E,0.0,,250220,0.0,E,A*01
$GNGGA,154957.00,5939.859661,N,01047.644528,E,1,11,1.1,100.0,M,40.0,M,,*74
$GPGSV,3,1,12,02,40,074,24,06,23,039,20,12,42,101,18,14,27,261,28*77
$GPGSV,3,2,12,24,01,154,18,25,80,139,25,29,49,205,30,31,40,296,24*79
$GPGSV,3,3,12,03,03,331,,04,01,355,,26,01,278,,32,14,237,*77
$GLGSV,2,1,06,78,74,296,23,86,22,032,16,77,45,130,11,69,18,300,14*6B
$GLGSV,2,2,06,87,69,106,31,70,18,001,*69
$GAGSV,1,1,0,*74
$PQGSV,1,1,0,*73
$PQGSV,1,1,0,*73
$GNGSA,A,3,02,06,12,14,25,29,31,,,,,,1.4,1.1,0.9,1*31
$GNGSA,A,2,78,86,87,,,,,,,,,,1.4,1.1,0.9,2*31
$GNVTG,,T,,M,0.0,N,0.0,K,A*3D
$GNRMC,154958.00,A,5939.859662,N,01047.644534,E,0.0,,250220,0.0,E,A*00
$GNGGA,154958.00,5939.859662,N,01047.644534,E,1,10,1.1,100.0,M,40.0,M,,*74
$GPGSV,3,1,12,02,40,074,22,06,23,039,21,12,42,101,20,14,27,261,28*7B
$GPGSV,3,2,12,24,01,154,19,25,80,139,25,29,49,205,30,31,40,296,24*78
$GPGSV,3,3,12,03,03,331,,04,01,355,,26,01,278,,32,14,237,*77
$GLGSV,2,1,06,78,74,296,21,86,22,032,19,77,45,130,11,69,18,300,14*66
$GLGSV,2,2,06,87,69,106,31,70,18,001,*69
$GAGSV,1,1,0,*74
$PQGSV,1,1,0,*73
$PQGSV,1,1,0,*73
$GNGSA,A,3,02,06,12,14,25,29,31,,,,,,1.4,1.1,0.9,1*31
$GNGSA,A,2,78,86,87,,,,,,,,,,1.4,1.1,0.9,2*31
$GNVTG,,T,,M,0.0,N,0.0,K,A*3D
$GNRMC,154959.00,A,5939.859660,N,01047.644543,E,0.0,,250220,0.0,E,A*03
$GNGGA,154959.00,5939.859660,N,01047.644543,E,1,10,1.1,100.0,M,40.0,M,,*77
$GPGSV,3,1,12,02,40,074,22,06,23,039,21,12,42,101,21,14,27,261,27*75
$GPGSV,3,2,12,24,01,154,17,25,80,139,25,29,49,205,30,31,40,296,25*77
$GPGSV,3,3,12,03,03,331,,04,01,355,,26,01,278,,32,14,237,*77
$GLGSV,2,1,06,78,74,296,22,86,22,032,19,77,45,130,11,69,18,300,14*65
$GLGSV,2,2,06,87,69,106,31,70,18,001,*69
$GAGSV,1,1,0,*74
$PQGSV,1,1,0,*73
$PQGSV,1,1,0,*73
$GNGSA,A,3,02,06,12,14,25,29,31,,,,,,1.4,1.1,0.9,1*31
$GNGSA,A,2,78,86,87,,,,,,,,,,1.4,1.1,0.9,2*31
$GNVTG,,T,,M,0.0,N,0.0,K,A*3D
$GNRMC,155000.00,A,5939.859655,N,01047.644560,E,0.0,,250220,0.0,E,A*00
$GNGGA,155000.00,5939.859655,N,01047.644560,E,1,10,1.1,100.0,M,40.0,M,,*74
$GPGSV,3,1,12,02,40,074,25,06,23,039,22,12,42,101,21,14,27,261,26*70
$GPGSV,3,2,12,24,01,154,17,25,80,139,25,29,49,205,29,31,40,296,26*7C
$GPGSV,3,3,12,03,03,331,,04,01,355,,26,01,278,,32,14,237,*77
$GLGSV,2,1,06,78,74,296,20,86,22,032,19,77,45,130,11,69,18,300,14*67
$GLGSV,2,2,06,87,69,106,31,70,18,001,*69
$GAGSV,1,1,0,*74
$PQGSV,1,1,0,*73
$PQGSV,1,1,0,*73
$GNGSA,A,3,02,06,12,14,25,29,31,,,,,,1.4,1.1,0.9,1*31
$GNGSA,A,2,78,86,87,,,,,,,,,,1.4,1.1,0.9,2*31
$GNVTG,,T,,M,0.0,N,0.0,K,A*3D
$GNRMC,155001.00,A,5939.859654,N,01047.644564,E,0.0,,250220,0.0,E,A*04
$GNGGA,155001.00,5939.859654,N,01047.644564,E,1,10,1.1,100.0,M,40.0,M,,*70
$GPGSV,3,1,12,02,40,074,27,06,23,039,21,12,42,101,22,14,27,261,26*72
$GPGSV,3,2,12,24,01,154,17,25,80,139,26,29,49,205,29,31,40,296,26*7F
$GPGSV,3,3,12,32,14,237,13,03,03,331,,04,01,355,,26,01,278,*75
$GLGSV,2,1,06,78,74,296,18,86,22,032,22,77,45,130,11,69,18,300,13*63
$GLGSV,2,2,06,87,69,106,31,70,18,001,*69
$GAGSV,1,1,0,*74
$PQGSV,1,1,0,*73
$PQGSV,1,1,0,*73
$GNGSA,A,3,02,06,12,14,25,29,31,,,,,,1.3,1.0,0.8,1*36
$GNGSA,A,2,78,86,87,,,,,,,,,,1.3,1.0,0.8,2*36
$GNVTG,,T,,M,0.0,N,0.0,K,A*3D
$GNRMC,155002.00,A,5939.859649,N,01047.644573,E,0.0,,250220,0.0,E,A*0D
$GNGGA,155002.00,5939.859649,N,01047.644573,E,1,10,1.0,100.0,M,40.0,M,,*78
$GPGSV,3,1,12,02,40,074,29,06,23,039,23,12,42,101,22,14,27,261,29*71
$GPGSV,3,2,12,24,01,154,21,25,80,139,24,29,49,205,27,31,40,296,24*74
$GPGSV,3,3,12,32,14,237,13,03,03,331,,04,01,355,,26,01,278,*75
$GLGSV,2,1,06,78,74,296,20,86,22,032,22,77,45,130,11,69,18,300,13*68
$GLGSV,2,2,06,87,69,106,30,70,18,001,*68
$GAGSV,1,1,0,*74
$PQGSV,1,1,0,*73
$PQGSV,1,1,0,*73
$GNGSA,A,3,02,06,12,14,25,29,31,32,,,,,1.2,0.9,0.8,1*3E
$GNGSA,A,3,69,78,86,87,,,,,,,,,1.2,0.9,0.8,2*31
$GNVTG,,T,,M,0.0,N,0.0,K,A*3D
$GNRMC,155003.00,A,5939.859651,N,01047.644575,E,0.0,,250220,0.0,E,A*03
$GNGGA,155003.00,5939.859651,N,01047.644575,E,1,12,0.9,100.0,M,40.0,M,,*7C
$GPGSV,3,1,12,02,40,074,28,06,23,039,25,12,42,101,24,14,27,261,28*71
$GPGSV,3,2,12,24,01,154,21,25,80,139,24,29,49,205,26,31,40,296,26*77
$GPGSV,3,3,12,32,14,237,13,03,03,331,,04,01,355,,26,01,278,*75
$GLGSV,2,1,06,78,74,296,20,86,22,032,21,77,45,130,11,69,18,300,17*6F
$GLGSV,2,2,06,87,69,106,29,70,18,001,*60
$GAGSV,1,1,0,*74
$PQGSV,1,1,0,*73
$PQGSV,1,1,0,*73
$GNGSA,A,3,02,06,12,14,25,29,31,32,,,,,1.2,0.9,0.8,1*3E
$GNGSA,A,3,69,77,78,86,87,,,,,,,,1.2,0.9,0.8,2*31
$GNVTG,,T,,M,0.0,N,0.0,K,A*3D
$GNRMC,155004.00,A,5939.859609,N,01047.644673,E,0.0,,250220,0.0,E,A*0C
$GNGGA,155004.00,5939.859609,N,01047.644673,E,1,12,0.9,100.0,M,40.0,M,,*73
$GPGSV,3,1,12,02,40,074,30,06,23,039,24,12,42,101,22,14,27,261,29*7E
$GPGSV,3,2,12,24,01,154,17,25,80,139,26,29,49,205,26,31,40,296,25*73
$GPGSV,3,3,12,32,14,237,13,03,03,331,,04,01,355,,26,01,278,*75
$GLGSV,2,1,06,78,74,296,20,86,22,032,21,77,45,130,11,69,18,300,17*6F
$GLGSV,2,2,06,87,69,106,28,70,18,001,*61
$GAGSV,1,1,0,*74
$PQGSV,1,1,0,*73
$PQGSV,1,1,0,*73
$GNGSA,A,3,02,06,12,14,25,29,31,32,,,,,1.2,0.9,0.8,1*3E
$GNGSA,A,3,69,77,78,86,87,,,,,,,,1.2,0.9,0.8,2*31
$GNVTG,345.1,T,345.1,M,5.0,N,9.2,K,A*33
$GNRMC,155005.00,A,5939.861496,N,01047.643831,E,5.0,345.1,250220,0.0,E,A*25
$GNGGA,155005.00,5939.861496,N,01047.643831,E,1,12,0.9,99.0,M,40.0,M,,*43
$GPGSV,3,1,12,02,40,074,27,06,23,039,23,12,42,101,22,14,27,261,26*70
$GPGSV,3,2,12,24,01,154,18,25,80,139,26,29,49,205,27,31,40,296,25*7D
$GPGSV,3,3,12,32,14,237,13,03,03,331,,04,01,355,,26,01,278,*75
$GLGSV,2,1,06,78,74,296,20,86,22,032,18,77,45,130,11,69,18,300,19*6B
$GLGSV,2,2,06,87,69,106,30,70,18,001,*68
$GAGSV,1,1,0,*74
$PQGSV,1,1,0,*73
$PQGSV,1,1,0,*73
$GNGSA,A,3,02,06,12,14,25,29,31,32,,,,,1.2,0.9,0.8,1*3E
$GNGSA,A,3,69,77,78,86,87,,,,,,,,1.2,0.9,0.8,2*31
$GNVTG,348.5,T,348.5,M,8.1,N,15.1,K,A*01
$GNRMC,155006.00,A,5939.863443,N,01047.643211,E,8.1,348.5,250220,0.0,E,A*21
$GNGGA,155006.00,5939.863443,N,01047.643211,E,1,12,0.9,100.0,M,40.0,M,,*73
$GPGSV,3,1,12,02,40,074,28,06,23,039,24,12,42,101,21,14,27,261,24*79
$GPGSV,3,2,12,24,01,154,18,25,80,139,24,29,49,205,27,31,40,296,23*79
$GPGSV,3,3,12,32,14,237,13,03,03,331,,04,01,355,,26,01,278,*75
$GLGSV,2,1,06,78,74,296,20,86,22,032,21,77,45,130,11,69,18,300,19*61
$GLGSV,2,2,06,87,69,106,30,70,18,001,*68
$GAGSV,1,1,0,*74
$PQGSV,1,1,0,*73
$PQGSV,1,1,0,*73
$GNGSA,A,3,02,06,12,14,25,29,31,32,,,,,1.2,0.9,0.8,1*3E
$GNGSA,A,3,69,77,78,86,87,,,,,,,,1.2,0.9,0.8,2*31
$GNVTG,352.4,T,352.4,M,9.2,N,17.0,K,A*00
$GNRMC,155007.00,A,5939.866039,N,01047.643338,E,9.2,352.4,250220,0.0,E,A*2E
$GNGGA,155007.00,5939.866039,N,01047.643338,E,1,12,0.9,99.0,M,40.0,M,,*45
$GPGSV,3,1,12,02,40,074,24,06,23,039,24,12,42,101,25,14,27,261,22*77
$GPGSV,3,2,12,24,01,154,17,25,80,139,23,29,49,205,27,31,40,296,18*79
$GPGSV,3,3,12,32,14,237,16,03,03,331,,04,01,355,,26,01,278,*70
$GLGSV,2,1,06,78,74,296,16,86,22,032,20,77,45,130,11,69,18,300,19*65
$GLGSV,2,2,06,87,69,106,28,70,18,001,*61
$GAGSV,1,1,0,*74
$PQGSV,1,1,0,*73
$PQGSV,1,1,0,*73
$GNGSA,A,3,02,06,12,14,25,29,31,32,,,,,1.2,0.9,0.8,1*3E
$GNGSA,A,3,69,77,78,86,87,,,,,,,,1.2,0.9,0.8,2*31
$GNVTG,351.5,T,351.5,M,10.2,N,18.9,K,A*3E
$GNRMC,155008.00,A,5939.869723,N,01047.641900,E,10.2,351.5,250220,0.0,E,A*1B
$GNGGA,155008.00,5939.869723,N,01047.641900,E,1,12,0.9,100.0,M,40.0,M,,*7B
$GPGSV,3,1,12,02,40,074,26,06,23,039,18,12,42,101,22,14,27,261,24*7B
$GPGSV,3,2,12,24,01,154,19,25,80,139,23,29,49,205,27,31,40,296,18*77
$GPGSV,3,3,12,32,14,237,16,03,03,331,,04,01,355,,26,01,278,*70
$GLGSV,2,1,06,78,74,296,23,86,22,032,21,77,45,130,11,69,18,300,17*6C
$GLGSV,2,2,06,87,69,106,24,70,18,001,*6D
$GAGSV,1,1,0,*74
$PQGSV,1,1,0,*73
$PQGSV,1,1,0,*73
$GNGSA,A,3,02,06,12,14,25,29,31,32,,,,,1.3,1.0,0.8,1*37
$GNGSA,A,3,69,77,78,86,87,,,,,,,,1.3,1.0,0.8,2*38
$GNVTG,349.6,T,349.6,M,12.6,N,23.3,K,A*3A
$GNRMC,155009.00,A,5939.875171,N,01047.639249,E,12.6,349.6,250220,0.0,E,A*13
$GNGGA,155009.00,5939.875171,N,01047.639249,E,1,12,1.0,101.0,M,40.0,M,,*76
$GPGSV,3,1,12,02,40,074,27,06,23,039,18,12,42,101,22,14,27,261,22*7C
$GPGSV,3,2,12,24,01,154,18,25,80,139,21,29,49,205,25,31,40,296,18*76
$GPGSV,3,3,12,32,14,237,16,03,03,331,,04,01,355,,26,01,278,*70
$GLGSV,2,1,06,78,74,296,26,86,22,032,17,77,45,130,14,69,18,300,22*6F
$GLGSV,2,2,06,87,69,106,26,70,18,001,*6F
$GAGSV,1,1,0,*74
$PQGSV,1,1,0,*73
$PQGSV,1,1,0,*73
$GNGSA,A,3,02,06,12,14,25,29,31,32,,,,,1.2,0.9,0.8,1*3E
$GNGSA,A,3,69,78,86,87,,,,,,,,,1.2,0.9,0.8,2*31
$GNVTG,348.5,T,348.5,M,13.2,N,24.4,K,A*3F
$GNRMC,155010.00,A,5939.879428,N,01047.636818,E,13.2,348.5,250220,0.0,E,A*18
$GNGGA,155010.00,5939.879428,N,01047.636818,E,1,12,0.9,103.0,M,40.0,M,,*70
$GPGSV,3,1,12,02,40,074,31,06,23,039,17,12,42,101,24,14,27,261,20*70
$GPGSV,3,2,12,24,01,154,18,25,80,139,21,29,49,205,28,31,40,296,21*71
$GPGSV,3,3,12,32,14,237,16,03,03,331,,04,01,355,,26,01,278,*70
$GLGSV,2,1,06,78,74,296,24,86,22,032,17,77,45,130,14,69,18,300,24*6B
$GLGSV,2,2,06,87,69,106,27,70,18,001,*6E
$GAGSV,1,1,0,*74
$PQGSV,1,1,0,*73
$PQGSV,1,1,0,*73
$GNGSA,A,3,02,06,12,14,25,29,31,32,,,,,1.2,0.9,0.8,1*3E
$GNGSA,A,3,69,77,78,86,87,,,,,,,,1.2,0.9,0.8,2*31
$GNVTG,350.4,T,350.4,M,15.6,N,28.8,K,A*3D
$GNRMC,155011.00,A,5939.884214,N,01047.634627,E,15.6,350.4,250220,0.0,E,A*18
$GNGGA,155011.00,5939.884214,N,01047.634627,E,1,12,0.9,100.0,M,40.0,M,,*79
$GPGSV,3,1,12,02,40,074,30,06,23,039,17,12,42,101,24,14,27,261,22*73
$GPGSV,3,2,12,24,01,154,21,25,80,139,19,29,49,205,26,31,40,296,21*7E
$GPGSV,3,3,12,32,14,237,26,03,03,331,,04,01,355,,26,01,278,*73
$GLGSV,2,1,06,78,74,296,23,86,22,032,19,77,45,130,14,69,18,300,26*60
$GLGSV,2,2,06,87,69,106,26,70,18,001,*6F
$GAGSV,1,1,0,*74
$PQGSV,1,1,0,*73
$PQGSV,1,1,0,*73
$GNGSA,A,3,02,06,12,14,25,29,31,32,,,,,1.2,0.9,0.8,1*3E
$GNGSA,A,3,69,77,78,86,87,,,,,,,,1.2,0.9,0.8,2*31
$GNVTG,347.7,T,347.7,M,16.1,N,29.8,K,A*38
$GNRMC,155012.00,A,5939.888366,N,01047.631986,E,16.1,347.7,250220,0.0,E,A*13
$GNGGA,155012.00,5939.888366,N,01047.631986,E,1,12,0.9,98.0,M,40.0,M,,*43
$GPGSV,3,1,12,02,40,074,28,06,23,039,19,12,42,101,27,14,27,261,29*7C
$GPGSV,3,2,12,24,01,154,21,25,80,139,19,29,49,205,24,31,40,296,23*7E
$GPGSV,3,3,12,32,14,237,24,03,03,331,,04,01,355,,26,01,278,*71
$GLGSV,2,1,06,78,74,296,19,86,22,032,19,77,45,130,14,69,18,300,20*6F
$GLGSV,2,2,06,87,69,106,25,70,18,001,*6C
$GAGSV,1,1,0,*74
$PQGSV,1,1,0,*73
$PQGSV,1,1,0,*73
$GNGSA,A,3,02,06,12,14,25,29,31,32,,,,,1.2,0.9,0.8,1*3E
$GNGSA,A,3,69,77,78,86,87,,,,,,,,1.2,0.9,0.8,2*31
$GNVTG,348.2,T,348.2,M,16.7,N,31.0,K,A*3F
$GNRMC,155013.00,A,5939.893621,N,01047.630515,E,16.7,348.2,250220,0.0,E,A*15
$GNGGA,155013.00,5939.893621,N,01047.630515,E,1,12,0.9,100.0,M,40.0,M,,*79
$GPGSV,3,1,12,02,40,074,29,06,23,039,19,12,42,101,27,14,27,261,23*77
$GPGSV,3,2,12,24,01,154,21,25,80,139,24,29,49,205,19,31,40,296,22*7F
$GPGSV,3,3,12,32,14,237,19,03,03,331,,04,01,355,,26,01,278,*7F
$GLGSV,2,1,06,78,74,296,19,86,22,032,19,77,45,130,14,69,18,300,20*6F
$GLGSV,2,2,06,87,69,106,27,70,18,001,*6E
$GAGSV,1,1,0,*74
$PQGSV,1,1,0,*73
$PQGSV,1,1,0,*73
$GNGSA,A,3,02,06,12,14,25,29,31,32,,,,,1.2,0.9,0.8,1*3E
$GNGSA,A,3,69,77,78,86,87,,,,,,,,1.2,0.9,0.8,2*31
$GNVTG,349.3,T,349.3,M,20.6,N,38.2,K,A*30
$GNRMC,155014.00,A,5939.900317,N,01047.628134,E,20.6,349.3,250220,0.0,E,A*13
$GNGGA,155014.00,5939.900317,N,01047.628134,E,1,12,0.9,100.0,M,40.0,M,,*7B
$GPGSV,3,1,12,02,40,074,32,06,23,039,19,12,42,101,20,14,27,261,19*73
$GPGSV,3,2,12,24,01,154,21,25,80,139,19,29,49,205,19,31,40,296,26*75
$GPGSV,3,3,12,32,14,237,30,03,03,331,,04,01,355,,26,01,278,*74
$GLGSV,2,1,06,78,74,296,18,86,22,032,19,77,45,130,14,69,18,300,19*64
$GLGSV,2,2,06,87,69,106,25,70,18,001,*6C
$GAGSV,1,1,0,*74
$PQGSV,1,1,0,*73
$PQGSV,1,1,0,*73
$GNGSA,A,3,02,06,12,14,25,29,31,32,,,,,1.2,0.9,0.8,1*3E
$GNGSA,A,3,69,77,78,86,87,,,,,,,,1.2,0.9,0.8,2*31
$GNVTG,350.1,T,350.1,M,21.4,N,39.7,K,A*37
$GNRMC,155015.00,A,5939.906964,N,01047.626181,E,21.4,350.1,250220,0.0,E,A*13
$GNGGA,155015.00,5939.906964,N,01047.626181,E,1,12,0.9,100.0,M,40.0,M,,*72
$GPGSV,3,1,12,02,40,074,34,06,23,039,19,12,42,101,19,14,27,261,18*7E
$GPGSV,3,2,12,24,01,154,21,25,80,139,19,29,49,205,19,31,40,296,22*71
$GPGSV,3,3,12,32,14,237,29,03,03,331,,04,01,355,,26,01,278,*7C
$GLGSV,2,1,06,78,74,296,22,86,22,032,19,77,45,130,14,69,18,300,18*6C
$GLGSV,2,2,06,87,69,106,26,70,18,001,*6F
$GAGSV,1,1,0,*74
$PQGSV,1,1,0,*73
$PQGSV,1,1,0,*73
$GNGSA,A,3,02,06,12,14,25,29,31,32,,,,,1.3,1.0,0.8,1*37
$GNGSA,A,3,69,77,78,86,87,,,,,,,,1.3,1.0,0.8,2*38
$GNVTG,352.0,T,352.0,M,21.2,N,39.2,K,A*34
$GNRMC,155016.00,A,5939.912117,N,01047.625026,E,21.2,352.0,250220,0.0,E,A*13
$GNGGA,155016.00,5939.912117,N,01047.625026,E,1,12,1.0,98.0,M,40.0,M,,*4F
$GPGSV,3,1,12,02,40,074,32,06,23,039,17,12,42,101,20,14,27,261,21*76
$GPGSV,3,2,12,24,01,154,21,25,80,139,19,29,49,205,19,31,40,296,22*71
$GPGSV,3,3,12,32,14,237,25,03,03,331,,04,01,355,,26,01,278,*70
$GLGSV,2,1,07,78,74,296,22,86,22,032,19,77,45,130,14,79,20,305,23*6A
$GLGSV,2,2,07,69,18,300,19,87,69,106,25,70,18,001,*50
$GAGSV,1,1,0,*74
$PQGSV,1,1,0,*73
$PQGSV,1,1,0,*73
$GNGSA,A,3,02,06,12,14,25,29,31,32,,,,,1.3,1.0,0.8,1*37
$GNGSA,A,3,69,78,86,87,,,,,,,,,1.3,1.0,0.8,2*38
$GNVTG,352.9,T,352.9,M,21.3,N,39.4,K,A*33
$GNRMC,155017.00,A,5939.918052,N,01047.623266,E,21.3,352.9,250220,0.0,E,A*10
$GNGGA,155017.00,5939.918052,N,01047.623266,E,1,12,1.0,100.0,M,40.0,M,,*74
$GPGSV,3,1,12,02,40,074,31,06,23,039,23,12,42,101,17,14,27,261,24*73
$GPGSV,3,2,12,24,01,154,21,25,80,139,17,29,49,205,15,31,40,296,24*75
$GPGSV,3,3,12,32,14,237,26,03,03,331,,04,01,355,,26,01,278,*73
$GLGSV,2,1,07,78,74,296,23,86,22,032,19,77,45,130,14,79,20,305,23*6B
$GLGSV,2,2,07,69,18,300,19,87,69,106,23,70,18,001,*56
$GAGSV,1,1,0,*74
$PQGSV,1,1,0,*73
$PQGSV,1,1,0,*73
$GNGSA,A,3,02,06,12,14,25,29,31,32,,,,,1.3,1.0,0.8,1*37
$GNGSA,A,3,69,78,86,87,,,,,,,,,1.3,1.0,0.8,2*38
$GNVTG,358.1,T,358.1,M,20.8,N,38.5,K,A*39
$GNRMC,155018.00,A,5939.923468,N,01047.624989,E,20.8,358.1,250220,0.0,E,A*1F
$GNGGA,155018.00,5939.923468,N,01047.624989,E,1,12,1.0,103.0,M,40.0,M,,*70
$GPGSV,3,1,12,02,40,074,33,06,23,039,19,12,42,101,25,14,27,261,23*7E
$GPGSV,3,2,12,24,01,154,21,25,80,139,21,29,49,205,15,31,40,296,26*72
$GPGSV,3,3,12,32,14,237,22,03,03,331,,04,01,355,,26,01,278,*77
$GLGSV,2,1,07,78,74,296,24,86,22,032,19,77,45,130,14,79,20,305,23*6C
$GLGSV,2,2,07,69,18,300,19,87,69,106,24,70,18,001,*51
$GAGSV,1,1,0,*74
$PQGSV,1,1,0,*73
$PQGSV,1,1,0,*73
$GNGSA,A,3,02,06,12,14,25,29,31,32,,,,,1.3,1.0,0.8,1*37
$GNGSA,A,2,69,78,87,,,,,,,,,,1.3,1.0,0.8,2*37
$GNVTG,4.4,T,4.4,M,20.4,N,37.8,K,A*37
$GNRMC,155019.00,A,5939.928510,N,01047.629010,E,20.4,4.4,250220,0.0,E,A*1C
$GNGGA,155019.00,5939.928510,N,01047.629010,E,1,11,1.0,102.0,M,40.0,M,,*72
$GPGSV,3,1,12,02,40,074,32,06,23,039,22,12,42,101,26,14,27,261,25*72
$GPGSV,3,2,12,24,01,154,21,25,80,139,22,29,49,205,19,31,40,296,24*7F
$GPGSV,3,3,12,32,14,237,26,03,03,331,,04,01,355,,26,01,278,*73
$GLGSV,2,1,07,78,74,296,21,86,22,032,19,77,45,130,14,79,20,305,23*69
$GLGSV,2,2,07,69,18,300,19,87,69,106,23,70,18,001,*56
$GAGSV,1,1,0,*74
$PQGSV,1,1,0,*73
$PQGSV,1,1,0,*73
$GNGSA,A,3,02,06,12,14,25,29,31,32,,,,,1.3,1.0,0.8,1*37
$GNGSA,A,2,69,78,87,,,,,,,,,,1.3,1.0,0.8,2*37
$GNVTG,356.1,T,356.1,M,21.8,N,40.3,K,A*31
$GNRMC,155020.00,A,5939.935761,N,01047.623974,E,21.8,356.1,250220,0.0,E,A*13
$GNGGA,155020.00,5939.935761,N,01047.623974,E,1,11,1.0,102.0,M,40.0,M,,*71
$GPGSV,3,1,12,02,40,074,30,06,23,039,20,12,42,101,27,14,27,261,24*72
$GPGSV,3,2,12,24,01,154,21,25,80,139,23,29,49,205,26,31,40,296,20*76
$GPGSV,3,3,12,32,14,237,26,03,03,331,,04,01,355,,26,01,278,*73
$GLGSV,2,1,07,78,74,296,22,86,22,032,19,77,45,130,14,79,20,305,23*6A
$GLGSV,2,2,07,69,18,300,19,87,69,106,23,70,18,001,*56
$GAGSV,1,1,0,*74
$PQGSV,1,1,0,*73
$PQGSV,1,1,0,*73
$GNGSA,A,3,02,06,12,14,25,29,31,32,,,,,1.3,1.0,0.8,1*37
$GNGSA,A,2,69,78,87,,,,,,,,,,1.3,1.0,0.8,2*37
$GNVTG,354.3,T,354.3,M,34.1,N,63.2,K,A*3C
$GNRMC,155021.00,A,5939.952831,N,01047.618832,E,34.1,354.3,250220,0.0,E,A*1F
$GNGGA,155021.00,5939.952831,N,01047.618832,E,1,11,1.0,101.0,M,40.0,M,,*73
$GPGSV,3,1,12,02,40,074,28,06,23,039,20,12,42,101,25,14,27,261,24*79
$GPGSV,3,2,12,24,01,154,21,25,80,139,21,29,49,205,25,31,40,296,18*7C
$GPGSV,3,3,12,32,14,237,18,03,03,331,,04,01,355,,26,01,278,*7E
$GLGSV,2,1,07,78,74,296,22,86,22,032,19,77,45,130,14,79,20,305,23*6A
$GLGSV,2,2,07,69,18,300,14,87,69,106,25,70,18,001,*5D
$GAGSV,1,1,0,*74
$PQGSV,1,1,0,*73
$PQGSV,1,1,0,*73
$GNGSA,A,3,02,06,12,14,25,29,31,32,,,,,1.3,1.0,0.8,1*37
$GNGSA,A,2,69,78,87,,,,,,,,,,1.3,1.0,0.8,2*37
$GNVTG,355.3,T,355.3,M,34.3,N,63.6,K,A*3A
$GNRMC,155022.00,A,5939.963193,N,01047.617854,E,34.3,355.3,250220,0.0,E,A*13
$GNGGA,155022.00,5939.963193,N,01047.617854,E,1,11,1.0,100.0,M,40.0,M,,*7D
$GPGSV,3,1,12,02,40,074,31,06,23,039,20,12,42,101,29,14,27,261,25*7C
$GPGSV,3,2,12,24,01,154,21,25,80,139,20,29,49,205,20,31,40,296,19*79
$GPGSV,3,3,12,32,14,237,21,03,03,331,,04,01,355,,26,01,278,*74
$GLGSV,2,1,07,78,74,296,22,86,22,032,19,77,45,130,14,79,20,305,23*6A
$GLGSV,2,2,07,69,18,300,19,87,69,106,25,70,18,001,*50
$GAGSV,1,1,0,*74
$PQGSV,1,1,0,*73
$PQGSV,1,1,0,*73
$GNGSA,A,3,02,06,12,14,25,29,31,32,,,,,1.3,1.0,0.8,1*37
$GNGSA,A,2,69,78,87,,,,,,,,,,1.3,1.0,0.8,2*37
$GNVTG,355.8,T,355.8,M,37.4,N,69.3,K,A*31
$GNRMC,155023.00,A,5939.975403,N,01047.614819,E,37.4,355.8,250220,0.0,E,A*1C
$GNGGA,155023.00,5939.975403,N,01047.614819,E,1,11,1.0,101.0,M,40.0,M,,*7C
$GPGSV,3,1,12,02,40,074,28,06,23,039,17,12,42,101,25,14,27,261,29*70
$GPGSV,3,2,12,24,01,154,21,25,80,139,24,29,49,205,20,31,40,296,20*77
$GPGSV,3,3,12,32,14,237,24,03,03,331,,04,01,355,,26,01,278,*71
$GLGSV,2,1,07,78,74,296,15,86,22,032,19,77,45,130,14,79,20,305,23*6E
$GLGSV,2,2,07,69,18,300,19,87,69,106,20,70,18,001,*55
$GAGSV,1,1,0,*74
$PQGSV,1,1,0,*73
$PQGSV,1,1,0,*73
$GNGSA,A,3,02,06,12,14,25,29,31,32,,,,,1.3,1.0,0.8,1*37
$GNGSA,A,2,69,78,87,,,,,,,,,,1.3,1.0,0.8,2*37
$GNVTG,356.7,T,356.7,M,37.3,N,69.1,K,A*34
$GNRMC,155024.00,A,5939.985280,N,01047.614034,E,37.3,356.7,250220,0.0,E,A*15
$GNGGA,155024.00,5939.985280,N,01047.614034,E,1,11,1.0,99.0,M,40.0,M,,*4E
$GPGSV,3,1,12,02,40,074,28,06,23,039,21,12,42,101,18,14,27,261,22*70
$GPGSV,3,2,12,24,01,154,21,25,80,139,27,29,49,205,16,31,40,296,20*71
$GPGSV,3,3,12,32,14,237,21,03,03,331,,04,01,355,,26,01,278,*74
$GLGSV,2,1,07,78,74,296,23,86,22,032,19,77,45,130,14,79,20,305,23*6B
$GLGSV,2,2,07,69,18,300,19,87,69,106,27,70,18,001,*52
$GAGSV,1,1,0,*74
$PQGSV,1,1,0,*73
$PQGSV,1,1,0,*73
$GNGSA,A,3,02,06,12,14,25,29,31,32,,,,,1.3,1.0,0.8,1*37
$GNGSA,A,2,69,78,87,,,,,,,,,,1.3,1.0,0.8,2*37
$GNVTG,359.2,T,359.2,M,38.9,N,72.1,K,A*3B
$GNRMC,155025.00,A,5939.996741,N,01047.613763,E,38.9,359.2,250220,0.0,E,A*13
$GNGGA,155025.00,5939.996741,N,01047.613763,E,1,11,1.0,101.0,M,40.0,M,,*77
$GPGSV,3,1,12,02,40,074,27,06,23,039,21,12,42,101,18,14,27,261,22*7F
$GPGSV,3,2,12,24,01,154,21,25,80,139,27,29,49,205,16,31,40,296,19*7B
$GPGSV,3,3,12,32,14,237,20,03,03,331,,04,01,355,,26,01,278,*75
$GLGSV,2,1,07,78,74,296,21,86,22,032,19,77,45,130,14,79,20,305,23*69
$GLGSV,2,2,07,69,18,300,19,87,69,106,24,70,18,001,*51
$GAGSV,1,1,0,*74
$PQGSV,1,1,0,*73
$PQGSV,1,1,0,*73
$GNGSA,A,3,02,06,12,14,25,29,31,32,,,,,1.3,1.0,0.8,1*37
$GNGSA,A,2,69,78,87,,,,,,,,,,1.3,1.0,0.8,2*37
$GNVTG,358.6,T,358.6,M,40.7,N,75.4,K,A*38
$GNRMC,155026.00,A,5940.008910,N,01047.610230,E,40.7,358.6,250220,0.0,E,A*1E
$GNGGA,155026.00,5940.008910,N,01047.610230,E,1,11,1.0,102.0,M,40.0,M,,*7D
$GPGSV,3,1,12,02,40,074,29,06,23,039,21,12,42,101,22,14,27,261,20*7A
$GPGSV,3,2,12,24,01,154,21,25,80,139,26,29,49,205,16,31,40,296,19*7A
$GPGSV,3,3,12,32,14,237,20,03,03,331,,04,01,355,,26,01,278,*75
$GLGSV,2,1,07,78,74,296,17,86,22,032,19,77,45,130,14,79,20,305,23*6C
$GLGSV,2,2,07,69,18,300,16,87,69,106,20,70,18,001,*5A
$GAGSV,1,1,0,*74
$PQGSV,1,1,0,*73
$PQGSV,1,1,0,*73
$GNGSA,A,3,02,06,12,14,25,29,31,32,,,,,1.3,1.0,0.8,1*37
$GNGSA,A,2,69,78,87,,,,,,,,,,1.3,1.0,0.8,2*37
$GNVTG,357.1,T,357.1,M,42.5,N,78.7,K,A*36
$GNRMC,155027.00,A,5940.022256,N,01047.606554,E,42.5,357.1,250220,0.0,E,A*14
$GNGGA,155027.00,5940.022256,N,01047.606554,E,1,11,1.0,102.0,M,40.0,M,,*7F
$GPGSV,3,1,12,02,40,074,30,06,23,039,20,12,42,101,24,14,27,261,23*76
$GPGSV,3,2,12,24,01,154,21,25,80,139,24,29,49,205,20,31,40,296,19*7D
$GPGSV,3,3,12,32,14,237,20,03,03,331,,04,01,355,,26,01,278,*75
$GLGSV,2,1,07,78,74,296,17,86,22,032,19,77,45,130,14,79,20,305,22*6D
$GLGSV,2,2,07,69,18,300,16,87,69,106,20,70,18,001,*5A
$GAGSV,1,1,0,*74
$PQGSV,1,1,0,*73
$PQGSV,1,1,0,*73
$GNGSA,A,3,02,06,12,14,25,29,31,32,,,,,1.3,1.0,0.8,1*37
$GNGSA,A,2,69,78,87,,,,,,,,,,1.3,1.0,0.8,2*37
$GNVTG,357.7,T,357.7,M,46.0,N,85.2,K,A*30
$GNRMC,155028.00,A,5940.038465,N,01047.604768,E,46.0,357.7,250220,0.0,E,A*1E
$GNGGA,155028.00,5940.038465,N,01047.604768,E,1,11,1.0,102.0,M,40.0,M,,*72
$GPGSV,3,1,12,02,40,074,28,06,23,039,20,12,42,101,22,14,27,261,23*79
$GPGSV,3,2,12,24,01,154,21,25,80,139,23,29,49,205,18,31,40,296,20*7B
$GPGSV,3,3,12,32,14,237,20,03,03,331,,04,01,355,,26,01,278,*75
$GLGSV,2,1,07,78,74,296,17,86,22,032,19,77,45,130,14,79,20,305,22*6D
$GLGSV,2,2,07,69,18,300,16,87,69,106,22,70,18,001,*58
$GAGSV,1,1,0,*74
$PQGSV,1,1,0,*73
$PQGSV,1,1,0,*73
$GNGSA,A,3,02,06,12,14,25,29,31,32,,,,,1.3,1.0,0.8,1*37
$GNGSA,A,2,69,78,87,,,,,,,,,,1.3,1.0,0.8,2*37
$GNVTG,358.7,T,358.7,M,44.5,N,82.3,K,A*31
$GNRMC,155029.00,A,5940.049138,N,01047.605043,E,44.5,358.7,250220,0.0,E,A*13
$GNGGA,155029.00,5940.049138,N,01047.605043,E,1,11,1.0,99.0,M,40.0,M,,*44
$GPGSV,3,1,12,02,40,074,27,06,23,039,23,12,42,101,21,14,27,261,19*7F
$GPGSV,3,2,12,24,01,154,21,25,80,139,21,29,49,205,18,31,40,296,21*78
$GPGSV,3,3,12,32,14,237,21,03,03,331,,04,01,355,,26,01,278,*74
$GLGSV,2,1,07,78,74,296,15,86,22,032,19,77,45,130,14,79,20,305,22*6F
$GLGSV,2,2,07,69,18,300,17,87,69,106,21,70,18,001,*5A
$GAGSV,1,1,0,*74
$PQGSV,1,1,0,*73
$PQGSV,1,1,0,*73
$GNGSA,A,3,02,06,12,14,25,29,31,32,,,,,1.3,1.0,0.8,1*37
$GNGSA,A,2,69,78,87,,,,,,,,,,1.3,1.0,0.8,2*37
$GNVTG,4.5,T,4.5,M,46.0,N,85.2,K,A*30
$GNRMC,155030.00,A,5940.062057,N,01047.611790,E,46.0,4.5,250220,0.0,E,A*19
$GNGGA,155030.00,5940.062057,N,01047.611790,E,1,11,1.0,100.0,M,40.0,M,,*70
$GPGSV,4,1,13,02,40,074,28,06,23,037,21,12,42,101,25,14,27,261,22*76
$GPGSV,4,2,13,24,01,154,21,25,79,137,23,29,49,205,16,31,40,295,20*78
$GPGSV,4,3,13,32,14,237,27,03,03,331,,04,01,354,,23,00,000,*7C
$GPGSV,4,4,13,26,02,278,*40
$GLGSV,2,1,07,78,75,295,19,86,21,032,19,77,45,130,14,79,21,305,21*60
$GLGSV,2,2,07,69,18,300,18,87,69,105,19,70,00,000,*55
$GAGSV,1,1,0,*74
$PQGSV,1,1,0,*73
$PQGSV,1,1,0,*73
$GNGSA,A,3,02,06,12,14,25,29,31,32,,,,,1.2,0.9,0.8,1*3E
$GNGSA,A,2,69,78,87,,,,,,,,,,1.2,0.9,0.8,2*3E
$GNVTG,5.1,T,5.1,M,46.4,N,86.0,K,A*35
$GNRMC,155031.00,A,5940.075007,N,01047.612468,E,46.4,5.1,250220,0.0,E,A*1D
$GNGGA,155031.00,5940.075007,N,01047.612468,E,1,11,0.9,101.0,M,40.0,M,,*7C
$GPGSV,4,1,13,02,40,074,28,06,23,037,21,12,42,101,25,14,27,261,21*75
$GPGSV,4,2,13,24,01,154,21,25,79,137,23,29,49,205,24,31,40,295,20*79
$GPGSV,4,3,13,32,14,237,21,03,03,331,,04,01,354,,23,00,000,*7A
$GPGSV,4,4,13,26,02,278,*40
$GLGSV,2,1,07,78,75,295,18,86,21,032,19,77,45,130,19,79,21,305,20*6D
$GLGSV,2,2,07,69,18,300,22,87,69,105,25,70,00,000,*53
$GAGSV,1,1,0,*74
$PQGSV,1,1,0,*73
$PQGSV,1,1,0,*73
$GNGSA,A,3,02,06,12,14,25,29,31,32,,,,,1.2,0.9,0.8,1*3E
$GNGSA,A,3,69,77,78,87,,,,,,,,,1.2,0.9,0.8,2*3F
$GNVTG,5.7,T,5.7,M,47.5,N,87.9,K,A*3D
$GNRMC,155032.00,A,5940.089268,N,01047.615210,E,47.5,5.7,250220,0.0,E,A*1E
$GNGGA,155032.00,5940.089268,N,01047.615210,E,1,12,0.9,99.0,M,40.0,M,,*4A
$GPGSV,4,1,13,02,40,074,29,06,23,037,24,12,42,101,31,14,27,261,26*73
$GPGSV,4,2,13,24,01,154,21,25,79,137,20,29,49,205,24,31,40,295,20*7A
$GPGSV,4,3,13,32,14,237,26,03,03,331,,04,01,354,,23,00,000,*7D
$GPGSV,4,4,13,26,02,278,*40
$GLGSV,2,1,07,78,75,295,19,86,21,032,19,77,45,130,18,79,21,305,18*66
$GLGSV,2,2,07,69,18,300,26,87,69,105,20,70,00,000,*52
$GAGSV,1,1,0,*74
$PQGSV,1,1,0,*73
$PQGSV,1,1,0,*73
$GNGSA,A,3,02,06,12,14,25,29,31,32,,,,,1.2,0.9,0.8,1*3E
$GNGSA,A,3,69,77,78,87,,,,,,,,,1.2,0.9,0.8,2*3F
$GNVTG,7.7,T,7.7,M,50.2,N,93.0,K,A*30
$GNRMC,155033.00,A,5940.103415,N,01047.616680,E,50.2,7.7,250220,0.0,E,A*1D
$GNGGA,155033.00,5940.103415,N,01047.616680,E,1,12,0.9,98.0,M,40.0,M,,*4B
$GPGSV,4,1,13,02,40,074,27,06,23,037,17,12,42,101,31,14,27,261,19*71
$GPGSV,4,2,13,24,01,154,21,25,79,137,24,29,49,205,24,31,40,295,18*75
$GPGSV,4,3,13,32,14,237,24,03,03,331,,04,01,354,,23,00,000,*7F
$GPGSV,4,4,13,26,02,278,*40
$GLGSV,2,1,07,78,75,295,18,86,21,032,19,77,45,130,19,79,21,305,23*6E
$GLGSV,2,2,07,69,18,300,20,87,69,105,24,70,00,000,*50
$GAGSV,1,1,0,*74
$PQGSV,1,1,0,*73
$PQGSV,1,1,0,*73
$GNGSA,A,3,02,06,12,14,25,29,31,32,,,,,1.2,0.9,0.8,1*3E
$GNGSA,A,3,69,77,78,87,,,,,,,,,1.2,0.9,0.8,2*3F
$GNVTG,7.1,T,7.1,M,50.7,N,93.9,K,A*3C
$GNRMC,155034.00,A,5940.120269,N,01047.616109,E,50.7,7.1,250220,0.0,E,A*13
$GNGGA,155034.00,5940.120269,N,01047.616109,E,1,12,0.9,99.0,M,40.0,M,,*47
$GPGSV,4,1,13,02,40,074,23,06,23,037,17,12,42,101,28,14,27,261,19*7D
$GPGSV,4,2,13,24,01,154,21,25,79,137,27,29,49,205,24,31,40,295,18*76
$GPGSV,4,3,13,32,14,237,27,03,03,331,,04,01,354,,23,00,000,*7C
$GPGSV,4,4,13,26,02,278,*40
$GLGSV,2,1,07,78,75,295,18,86,21,032,19,77,45,130,19,79,21,305,22*6F
$GLGSV,2,2,07,69,18,300,20,87,69,105,26,70,00,000,*52
$GAGSV,1,1,0,*74
$PQGSV,1,1,0,*73
$PQGSV,1,1,0,*73
$GNGSA,A,3,02,06,12,14,25,29,31,32,,,,,1.2,0.9,0.8,1*3E
$GNGSA,A,3,69,77,78,87,,,,,,,,,1.2,0.9,0.8,2*3F
$GNVTG,8.2,T,8.2,M,52.4,N,97.0,K,A*30
$GNRMC,155035.00,A,5940.136207,N,01047.619044,E,52.4,8.2,250220,0.0,E,A*17
$GNGGA,155035.00,5940.136207,N,01047.619044,E,1,12,0.9,100.0,M,40.0,M,,*7F
$GPGSV,4,1,13,02,40,074,24,06,23,037,17,12,42,101,23,14,27,261,20*7B
$GPGSV,4,2,13,24,01,154,21,25,79,137,27,29,49,205,14,31,40,295,18*75
$GPGSV,4,3,13,32,14,237,24,03,03,331,,04,01,354,,23,00,000,*7F
$GPGSV,4,4,13,26,02,278,*40
$GLGSV,2,1,06,78,75,295,22,77,45,130,19,79,21,305,21,69,18,300,19*6D
$GLGSV,2,2,06,87,69,105,25,70,00,000,*67
$GAGSV,1,1,0,*74
$PQGSV,1,1,0,*73
$PQGSV,1,1,0,*73
$GNGSA,A,3,02,06,12,14,25,29,31,32,,,,,1.2,0.9,0.8,1*3E
$GNGSA,A,3,69,77,78,87,,,,,,,,,1.2,0.9,0.8,2*3F
$GNVTG,9.9,T,9.9,M,51.4,N,95.3,K,A*32
$GNRMC,155036.00,A,5940.150451,N,01047.623712,E,51.4,9.9,250220,0.0,E,A*15
$GNGGA,155036.00,5940.150451,N,01047.623712,E,1,12,0.9,102.0,M,40.0,M,,*76
$GPGSV,4,1,13,02,40,074,27,06,23,037,16,12,42,101,20,14,27,261,27*7D
$GPGSV,4,2,13,25,79,137,25,29,49,205,22,31,40,295,20,32,14,237,22*7F
$GPGSV,4,3,13,03,03,331,,04,01,354,,23,00,000,,24,01,154,*7C
$GPGSV,4,4,13,26,02,278,*40
$GLGSV,2,1,07,78,75,295,22,77,45,130,15,79,21,305,22,69,18,300,21*68
$GLGSV,2,2,07,87,69,105,17,70,00,000,,86,21,032,*5B
$GAGSV,1,1,0,*74
$PQGSV,1,1,0,*73
$PQGSV,1,1,0,*73
$GNGSA,A,3,02,06,12,14,25,29,31,32,,,,,1.2,0.9,0.8,1*3E
$GNGSA,A,3,69,77,78,87,,,,,,,,,1.2,0.9,0.8,2*3F
$GNVTG,10.6,T,10.6,M,51.5,N,95.3,K,A*33
$GNRMC,155037.00,A,5940.164203,N,01047.629586,E,51.5,10.6,250220,0.0,E,A*21
$GNGGA,155037.00,5940.164203,N,01047.629586,E,1,12,0.9,102.0,M,40.0,M,,*74
$GPGSV,4,1,13,02,40,074,21,06,23,037,16,12,42,101,18,14,27,261,22*75
$GPGSV,4,2,13,25,79,137,25,29,49,205,20,31,40,295,25,32,14,237,25*7F
$GPGSV,4,3,13,03,03,331,,04,01,354,,23,00,000,,24,01,154,*7C
$GPGSV,4,4,13,26,02,278,*40
$GLGSV,2,1,07,78,75,295,19,77,45,130,15,79,21,305,19,69,18,300,19*63
$GLGSV,2,2,07,87,69,105,18,70,00,000,,86,21,032,*54
$GAGSV,1,1,0,*74
$PQGSV,1,1,0,*73
$PQGSV,1,1,0,*73
$GNGSA,A,3,02,06,12,14,25,29,31,32,,,,,1.2,0.9,0.8,1*3E
$GNGSA,A,3,69,77,78,87,,,,,,,,,1.2,0.9,0.8,2*3F
$GNVTG,10.5,T,10.5,M,55.6,N,103.0,K,A*09
$GNRMC,155038.00,A,5940.180369,N,01047.636173,E,55.6,10.5,250220,0.0,E,A*2D
$GNGGA,155038.00,5940.180369,N,01047.636173,E,1,12,0.9,103.0,M,40.0,M,,*7D
$GPGSV,4,1,13,02,40,074,22,06,23,037,16,12,42,101,18,14,27,261,20*74
$GPGSV,4,2,13,25,79,137,21,29,49,205,17,31,40,295,21,32,14,237,23*7D
$GPGSV,4,3,13,03,03,331,,04,01,354,,23,00,000,,24,01,154,*7C
$GPGSV,4,4,13,26,02,278,*40
$GLGSV,2,1,07,78,75,295,22,77,45,130,15,79,21,305,20,69,18,300,19*61
$GLGSV,2,2,07,87,69,105,17,70,00,000,,86,21,032,*5B
$GAGSV,1,1,0,*74
$PQGSV,1,1,0,*73
$PQGSV,1,1,0,*73
$GNGSA,A,3,02,06,12,14,25,29,31,32,,,,,1.2,0.9,0.8,1*3E
$GNGSA,A,3,69,77,78,87,,,,,,,,,1.2,0.9,0.8,2*3F
$GNVTG,11.8,T,11.8,M,55.9,N,103.5,K,A*03
$GNRMC,155039.00,A,5940.195155,N,01047.643643,E,55.9,11.8,250220,0.0,E,A*20
$GNGGA,155039.00,5940.195155,N,01047.643643,E,1,12,0.9,103.0,M,40.0,M,,*73
$GPGSV,4,1,13,02,40,074,24,06,23,037,15,12,42,101,24,14,27,261,20*7E
$GPGSV,4,2,13,25,79,137,23,29,49,205,20,31,40,295,22,32,14,237,22*79
$GPGSV,4,3,13,03,03,331,,04,01,354,,23,00,000,,24,01,154,*7C
$GPGSV,4,4,13,26,02,278,*40
$GLGSV,2,1,07,78,75,295,22,77,45,130,17,79,21,305,20,69,18,300,19*63
$GLGSV,2,2,07,87,69,105,18,70,00,000,,86,21,032,*54
$GAGSV,1,1,0,*74
$PQGSV,1,1,0,*73
$PQGSV,1,1,0,*73
$GNGSA,A,3,02,06,12,14,25,29,31,32,,,,,1.2,0.9,0.8,1*3E
$GNGSA,A,3,69,77,78,87,,,,,,,,,1.2,0.9,0.8,2*3F
$GNVTG,11.7,T,11.7,M,56.6,N,104.8,K,A*05
$GNRMC,155040.00,A,5940.209539,N,01047.652311,E,56.6,11.7,250220,0.0,E,A*27
$GNGGA,155040.00,5940.209539,N,01047.652311,E,1,12,0.9,102.0,M,40.0,M,,*76
$GPGSV,4,1,13,02,40,074,23,06,23,037,17,12,42,101,25,14,27,261,17*7E
$GPGSV,4,2,13,25,79,137,24,29,49,205,21,31,40,295,21,32,14,237,22*7C
$GPGSV,4,3,13,03,03,331,,04,01,354,,23,00,000,,24,01,154,*7C
$GPGSV,4,4,13,26,02,278,*40
$GLGSV,2,1,07,78,75,295,20,77,45,130,19,79,21,305,20,69,18,300,19*6F
$GLGSV,2,2,07,87,69,105,23,70,00,000,,86,21,032,*5C
$GAGSV,1,1,0,*74
$PQGSV,1,1,0,*73
$PQGSV,1,1,0,*73
$GNGSA,A,3,02,06,12,14,25,29,31,32,,,,,1.2,0.9,0.8,1*3E
$GNGSA,A,3,69,77,78,87,,,,,,,,,1.2,0.9,0.8,2*3F
$GNVTG,11.0,T,11.0,M,58.6,N,108.5,K,A*0A
$GNRMC,155041.00,A,5940.226027,N,01047.659462,E,58.6,11.0,250220,0.0,E,A*20
$GNGGA,155041.00,5940.226027,N,01047.659462,E,1,12,0.9,102.0,M,40.0,M,,*78
$GPGSV,4,1,13,02,40,074,23,06,23,037,18,12,42,101,24,14,27,261,17*70
$GPGSV,4,2,13,25,79,137,23,29,49,205,19,31,40,295,20,32,14,237,22*71
$GPGSV,4,3,13,03,03,331,,04,01,354,,23,00,000,,24,01,154,*7C
$GPGSV,4,4,13,26,02,278,*40
$GLGSV,2,1,07,78,75,295,19,77,45,130,19,79,21,305,20,69,18,300,19*65
$GLGSV,2,2,07,87,69,105,20,70,00,000,,86,21,032,*5F
$GAGSV,1,1,0,*74
$PQGSV,1,1,0,*73
$PQGSV,1,1,0,*73
$GNGSA,A,3,02,06,12,14,25,29,31,32,,,,,1.2,0.9,0.8,1*3E
$GNGSA,A,3,69,77,78,87,,,,,,,,,1.2,0.9,0.8,2*3F
$GNVTG,10.4,T,10.4,M,59.5,N,110.3,K,A*07
$GNRMC,155042.00,A,5940.241878,N,01047.666152,E,59.5,10.4,250220,0.0,E,A*2D
$GNGGA,155042.00,5940.241878,N,01047.666152,E,1,12,0.9,102.0,M,40.0,M,,*72
$GPGSV,4,1,13,02,40,074,23,06,23,037,18,12,42,101,24,14,27,261,17*70
$GPGSV,4,2,13,25,79,137,22,29,49,205,18,31,40,295,21,32,14,237,22*70
$GPGSV,4,3,13,03,03,331,,04,01,354,,23,00,000,,24,01,154,*7C
$GPGSV,4,4,13,26,02,278,*40
$GLGSV,2,1,07,78,75,295,17,77,45,130,17,79,21,305,20,69,18,300,19*65
$GLGSV,2,2,07,87,69,105,22,70,00,000,,86,21,032,*5D
$GAGSV,1,1,0,*74
$PQGSV,1,1,0,*73
$PQGSV,1,1,0,*73
$GNGSA,A,3,02,06,12,14,25,29,31,32,,,,,1.2,0.9,0.8,1*3E
$GNGSA,A,3,69,77,78,87,,,,,,,,,1.2,0.9,0.8,2*3F
$GNVTG,10.7,T,10.7,M,60.8,N,112.7,K,A*06
$GNRMC,155043.00,A,5940.258742,N,01047.672632,E,60.8,10.7,250220,0.0,E,A*22
$GNGGA,155043.00,5940.258742,N,01047.672632,E,1,12,0.9,101.0,M,40.0,M,,*7A
$GPGSV,4,1,13,02,40,074,23,06,23,037,19,12,42,101,24,14,27,261,17*71
$GPGSV,4,2,13,25,79,137,23,29,49,205,18,31,40,295,21,32,14,237,17*77
$GPGSV,4,3,13,03,03,331,,04,01,354,,23,00,000,,24,01,154,*7C
$GPGSV,4,4,13,26,02,278,*40
$GLGSV,2,1,07,78,75,295,19,77,45,130,18,79,21,305,20,69,18,300,19*64
$GLGSV,2,2,07,87,69,105,21,70,00,000,,86,21,032,*5E
$GAGSV,1,1,0,*74
$PQGSV,1,1,0,*73
$PQGSV,1,1,0,*73
$GNGSA,A,3,02,06,12,14,25,29,31,32,,,,,1.2,0.9,0.8,1*3E
$GNGSA,A,3,69,77,78,87,,,,,,,,,1.2,0.9,0.8,2*3F
$GNVTG,10.9,T,10.9,M,61.4,N,113.8,K,A*05
$GNRMC,155044.00,A,5940.275695,N,01047.678971,E,61.4,10.9,250220,0.0,E,A*20
$GNGGA,155044.00,5940.275695,N,01047.678971,E,1,12,0.9,101.0,M,40.0,M,,*7B
$GPGSV,4,1,13,02,40,074,26,06,23,037,19,12,42,101,27,14,27,261,17*77
$GPGSV,4,2,13,25,79,137,23,29,49,205,21,31,40,295,22,32,14,237,20*7A
$GPGSV,4,3,13,03,03,331,,04,01,354,,23,00,000,,24,01,154,*7C
$GPGSV,4,4,13,26,02,278,*40
$GLGSV,2,1,07,78,75,295,20,77,45,130,18,79,21,305,20,69,18,300,15*62
$GLGSV,2,2,07,87,69,105,24,70,00,000,,86,21,032,*5B
$GAGSV,1,1,0,*74
$PQGSV,1,1,0,*73
$PQGSV,1,1,0,*73
$GNGSA,A,3,02,06,12,14,25,29,31,32,,,,,1.2,0.9,0.8,1*3E
$GNGSA,A,3,69,77,78,87,,,,,,,,,1.2,0.9,0.8,2*3F
$GNVTG,11.1,T,11.1,M,61.6,N,114.1,K,A*09
$GNRMC,155045.00,A,5940.292905,N,01047.684912,E,61.6,11.1,250220,0.0,E,A*23
$GNGGA,155045.00,5940.292905,N,01047.684912,E,1,12,0.9,102.0,M,40.0,M,,*70
$GPGSV,4,1,13,02,40,074,25,06,23,037,18,12,42,101,27,14,27,261,16*74
$GPGSV,4,2,13,25,79,137,24,29,49,205,21,31,40,295,22,32,14,237,22*7F
$GPGSV,4,3,13,03,03,331,,04,01,354,,23,00,000,,24,01,154,*7C
$GPGSV,4,4,13,26,02,278,*40
$GLGSV,2,1,07,78,75,295,21,77,45,130,18,79,21,305,20,69,18,300,15*63
$GLGSV,2,2,07,87,69,105,18,70,00,000,,86,21,032,*54
$GAGSV,1,1,0,*74
$PQGSV,1,1,0,*73
$PQGSV,1,1,0,*73
$GNGSA,A,3,02,06,12,14,25,29,31,32,,,,,1.2,0.9,0.8,1*3E
$GNGSA,A,3,69,77,78,87,,,,,,,,,1.2,0.9,0.8,2*3F
$GNVTG,10.6,T,10.6,M,62.0,N,114.8,K,A*05
$GNRMC,155046.00,A,5940.309808,N,01047.692609,E,62.0,10.6,250220,0.0,E,A*2E
$GNGGA,155046.00,5940.309808,N,01047.692609,E,1,12,0.9,101.0,M,40.0,M,,*7D
$GPGSV,4,1,13,02,40,074,25,06,23,037,20,12,42,101,28,14,27,261,18*7E
$GPGSV,4,2,13,25,79,137,25,29,49,205,22,31,40,295,22,32,14,237,23*7C
$GPGSV,4,3,13,03,03,331,,04,01,354,,23,00,000,,24,01,154,*7C
$GPGSV,4,4,13,26,02,278,*40
$GLGSV,2,1,07,78,75,295,21,77,45,130,19,79,21,305,13,69,18,300,17*60
$GLGSV,2,2,07,87,69,105,17,70,00,000,,86,21,032,*5B
$GAGSV,1,1,0,*74
$PQGSV,1,1,0,*73
$PQGSV,1,1,0,*73
$GNGSA,A,3,02,06,12,14,25,29,31,32,,,,,1.2,0.9,0.8,1*3E
$GNGSA,A,3,69,77,78,87,,,,,,,,,1.2,0.9,0.8,2*3F
$GNVTG,11.5,T,11.5,M,62.1,N,115.1,K,A*0C
$GNRMC,155047.00,A,5940.326506,N,01047.701045,E,62.1,11.5,250220,0.0,E,A*27
$GNGGA,155047.00,5940.326506,N,01047.701045,E,1,12,0.9,102.0,M,40.0,M,,*74
$GPGSV,4,1,13,02,40,074,24,06,23,037,18,12,42,101,25,14,27,261,19*78
$GPGSV,4,2,13,25,79,137,23,29,49,205,18,31,40,295,21,32,14,237,23*70
$GPGSV,4,3,13,03,03,331,,04,01,354,,23,00,000,,24,01,154,*7C
$GPGSV,4,4,13,26,02,278,*40
$GLGSV,2,1,07,78,75,295,21,77,45,130,20,79,21,305,13,69,18,300,17*6A
$GLGSV,2,2,07,87,69,105,21,70,00,000,,86,21,032,*5E
$GAGSV,1,1,0,*74
$PQGSV,1,1,0,*73
$PQGSV,1,1,0,*73
$GNGSA,A,3,02,06,12,14,25,29,31,32,,,,,1.2,0.9,0.8,1*3E
$GNGSA,A,3,69,77,78,87,,,,,,,,,1.2,0.9,0.8,2*3F
$GNVTG,10.4,T,10.4,M,64.1,N,118.7,K,A*01
$GNRMC,155048.00,A,5940.344757,N,01047.707115,E,64.1,10.4,250220,0.0,E,A*2E
$GNGGA,155048.00,5940.344757,N,01047.707115,E,1,12,0.9,104.0,M,40.0,M,,*7D
$GPGSV,4,1,13,02,40,074,26,06,23,037,18,12,42,101,27,14,27,261,19*78
$GPGSV,4,2,13,25,79,137,23,29,49,205,17,31,40,295,21,32,14,237,23*7F
$GPGSV,4,3,13,03,03,331,,04,01,354,,23,00,000,,24,01,154,*7C
$GPGSV,4,4,13,26,02,278,*40
$GLGSV,2,1,07,78,75,295,22,77,45,130,18,79,21,305,13,69,18,300,17*62
$GLGSV,2,2,07,87,69,105,21,70,00,000,,86,21,032,*5E
$GAGSV,1,1,0,*74
$PQGSV,1,1,0,*73
$PQGSV,1,1,0,*73
$GNGSA,A,3,02,06,12,14,25,29,31,32,,,,,1.2,0.9,0.8,1*3E
$GNGSA,A,3,69,77,78,87,,,,,,,,,1.2,0.9,0.8,2*3F
$GNVTG,10.9,T,10.9,M,64.7,N,119.7,K,A*06
$GNRMC,155049.00,A,5940.361861,N,01047.716147,E,64.7,10.9,250220,0.0,E,A*2E
$GNGGA,155049.00,5940.361861,N,01047.716147,E,1,12,0.9,104.0,M,40.0,M,,*76
$GPGSV,4,1,13,02,40,074,26,06,23,037,18,12,42,101,26,14,27,261,17*77
$GPGSV,4,2,13,25,79,137,21,29,49,205,20,31,40,295,23,32,14,237,19*72
$GPGSV,4,3,13,03,03,331,,04,01,354,,23,00,000,,24,01,154,*7C
$GPGSV,4,4,13,26,02,278,*40
$GLGSV,2,1,07,78,75,295,19,77,45,130,18,79,21,305,13,69,18,300,16*6B
$GLGSV,2,2,07,87,69,105,21,70,00,000,,86,21,032,*5E
$GAGSV,1,1,0,*74
$PQGSV,1,1,0,*73
$PQGSV,1,1,0,*73
$GNGSA,A,3,02,06,12,14,25,29,31,32,,,,,1.2,0.9,0.8,1*3E
$GNGSA,A,3,69,77,78,87,,,,,,,,,1.2,0.9,0.8,2*3F
$GNVTG,10.9,T,10.9,M,66.1,N,122.5,K,A*08
$GNRMC,155050.00,A,5940.379608,N,01047.723342,E,66.1,10.9,250220,0.0,E,A*2B
$GNGGA,155050.00,5940.379608,N,01047.723342,E,1,12,0.9,104.0,M,40.0,M,,*77
$GPGSV,4,1,13,02,40,074,25,06,23,037,21,12,42,101,27,14,27,261,20*7B
$GPGSV,4,2,13,25,79,137,22,29,49,205,20,31,40,295,19,32,14,237,22*70
$GPGSV,4,3,13,03,03,331,,04,01,354,,23,00,000,,24,01,154,*7C
$GPGSV,4,4,13,26,02,278,*40
$GLGSV,2,1,07,78,75,295,20,77,45,130,18,79,21,305,13,69,18,300,16*61
$GLGSV,2,2,07,87,69,105,15,70,00,000,,86,21,032,*59
$GAGSV,1,1,0,*74
$PQGSV,1,1,0,*73
$PQGSV,1,1,0,*73
$GNGSA,A,3,02,06,12,14,25,29,31,32,,,,,1.2,0.9,0.8,1*3E
$GNGSA,A,3,69,77,78,87,,,,,,,,,1.2,0.9,0.8,2*3F
$GNVTG,11.2,T,11.2,M,66.1,N,122.4,K,A*09
$GNRMC,155051.00,A,5940.397158,N,01047.730839,E,66.1,11.2,250220,0.0,E,A*27
$GNGGA,155051.00,5940.397158,N,01047.730839,E,1,12,0.9,104.0,M,40.0,M,,*71
$GPGSV,4,1,13,02,40,074,25,06,23,037,21,12,42,101,26,14,27,261,20*7A
$GPGSV,4,2,13,25,79,137,23,29,49,205,18,31,40,295,21,32,14,237,23*70
$GPGSV,4,3,13,03,03,331,,04,01,354,,23,00,000,,24,01,154,*7C
$GPGSV,4,4,13,26,02,278,*40
$GLGSV,2,1,07,78,75,295,22,77,45,130,18,79,21,305,13,69,18,300,16*63
$GLGSV,2,2,07,87,69,105,15,70,00,000,,86,21,032,*59
$GAGSV,1,1,0,*74
$PQGSV,1,1,0,*73
$PQGSV,1,1,0,*73
$GNGSA,A,3,02,06,12,14,25,29,31,32,,,,,1.2,0.9,0.8,1*3E
$GNGSA,A,3,69,77,78,87,,,,,,,,,1.2,0.9,0.8,2*3F
$GNVTG,10.5,T,10.5,M,67.6,N,125.2,K,A*0E
$GNRMC,155052.00,A,5940.416601,N,01047.737591,E,67.6,10.5,250220,0.0,E,A*29
$GNGGA,155052.00,5940.416601,N,01047.737591,E,1,12,0.9,105.0,M,40.0,M,,*7E
$GPGSV,4,1,13,02,40,074,24,06,23,037,18,12,42,101,28,14,27,261,17*7B
$GPGSV,4,2,13,25,79,137,24,29,49,205,18,31,40,295,19,32,14,237,23*7C
$GPGSV,4,3,13,03,03,331,,04,01,354,,23,00,000,,24,01,154,*7C
$GPGSV,4,4,13,26,02,278,*40
$GLGSV,2,1,07,78,75,295,20,77,45,130,17,79,21,305,13,69,18,300,16*6E
$GLGSV,2,2,07,87,69,105,21,70,00,000,,86,21,032,*5E
$GAGSV,1,1,0,*74
$PQGSV,1,1,0,*73
$PQGSV,1,1,0,*73
$GNGSA,A,3,02,06,12,14,25,29,31,32,,,,,1.2,0.9,0.8,1*3E
$GNGSA,A,3,69,77,78,87,,,,,,,,,1.2,0.9,0.8,2*3F
$GNVTG,10.7,T,10.7,M,67.4,N,124.7,K,A*08
$GNRMC,155053.00,A,5940.434508,N,01047.744000,E,67.4,10.7,250220,0.0,E,A*2B
$GNGGA,155053.00,5940.434508,N,01047.744000,E,1,12,0.9,105.0,M,40.0,M,,*7C
$GPGSV,4,1,13,02,40,074,19,06,23,037,18,12,42,101,27,14,27,261,17*7A
$GPGSV,4,2,13,25,79,137,25,29,49,205,18,31,40,295,19,32,14,237,23*7D
$GPGSV,4,3,13,03,03,331,,04,01,354,,23,00,000,,24,01,154,*7C
$GPGSV,4,4,13,26,02,278,*40
$GLGSV,2,1,07,78,75,295,21,77,45,130,18,79,21,305,13,69,18,300,16*60
$GLGSV,2,2,07,87,69,105,27,70,00,000,,86,21,032,*58
$GAGSV,1,1,0,*74
$PQGSV,1,1,0,*73
$PQGSV,1,1,0,*73
$GNGSA,A,3,02,06,12,14,25,29,31,32,,,,,1.2,0.9,0.8,1*3E
$GNGSA,A,3,69,77,78,87,,,,,,,,,1.2,0.9,0.8,2*3F
$GNVTG,11.3,T,11.3,M,67.1,N,124.2,K,A*08
$GNRMC,155054.00,A,5940.452295,N,01047.750927,E,67.1,11.3,250220,0.0,E,A*26
$GNGGA,155054.00,5940.452295,N,01047.750927,E,1,12,0.9,106.0,M,40.0,M,,*72
$GPGSV,4,1,13,02,40,074,25,06,23,037,16,12,42,101,27,14,27,261,17*7B
$GPGSV,4,2,13,25,79,137,28,29,49,205,17,31,40,295,18,32,14,237,17*79
$GPGSV,4,3,13,03,03,331,,04,01,354,,23,00,000,,24,01,154,*7C
$GPGSV,4,4,13,26,02,278,*40
